Latitude,Longitude,StationName,State,County,StationID,Date,Time,RainAccumulation(Inches),WindSpeed(MPH),WindDirection(Degrees),AirTempreture(Fahrenheit),RelativeHumidity(%),SolarRadiation(W/M^2)
44.02861,-90.08306,NECEDAH,WI,Juneau,17372963,2022/08/31,12:48:00+00,22.09,5.0,273.0,62.0,82.0,28.0
36.475,-84.65417,BISO-NP,TN,Scott,17246242,2022/03/15,12:54:00+00,14.94,0.0,197.0,41.0,75.0,37.0
46.30739,-105.02978,KNOWLTON,MT,Prairie,16831540,2022/05/02,22:40:00+00,1.59,11.0,180.0,55.0,44.0,442.0
38.03944,-122.57,BIG ROCK,CA,Marin,17414417,2022/08/03,15:33:59+00,3.53,3.0,144.0,62.0,78.0,138.0
37.33111,-106.2925,SAN LUIS VALLEY PORTABLE,CO,Conejos,17567535,2022/05/06,01:39:00+00,0.0,4.0,230.0,51.0,22.0,40.0
43.17392,-115.15186,DEER HAVEN,ID,Elmore,16824372,2022/05/02,22:44:59+00,1.85,17.0,337.0,43.0,87.0,345.0
35.68194,-85.27333,BLEDSOE SF,TN,Bledsoe,17394716,2022/03/15,13:05:59+00,16.85,3.0,134.0,52.0,53.0,58.0
34.82499,-77.32307,HOFMANN FOREST,NC,Onslow,17274669,2022/03/15,13:11:00+00,6.65,0.0,81.0,51.0,90.0,227.0
37.23307,-119.50585,NORTH FORK,CA,Madera,17115983,2022/03/15,12:55:00+00,18.83,2.0,332.0,44.0,77.0,0.0
39.46806,-109.28583,UPPER P.R. CANYON,UT,Grand,16869943,2022/08/31,13:28:00+00,9.72,3.0,22.0,64.0,29.0,30.0
32.48361,-85.55556,TUSKEGEE,AL,Macon,17085722,2022/08/31,13:27:00+00,1.27,3.0,183.0,76.0,91.0,119.0
39.64,-105.46472,CORRAL CREEK,CO,Jefferson,17206311,2022/08/31,12:58:00+00,12.42,3.0,335.0,53.0,45.0,4.0
41.23778,-77.75167,COFFIN ROCK,PA,Clinton,17549341,2022/08/25,22:15:59+00,24.82,3.0,173.0,75.0,55.0,74.0
44.16858,-111.78161,GAS CAVES,ID,Fremont,16820790,2022/05/09,05:23:00+00,2.87,8.0,179.0,31.0,75.0,0.0
37.17698,-121.39659,ORESTIMBA CREEK,CA,Santa Clara,19779075,2022/08/31,13:07:00+00,17.49,1.0,122.0,49.0,85.0,0.0
37.01111,-81.17861,STONY FORK,VA,Wythe,17539102,2022/03/15,12:58:00+00,10.24,0.0,274.0,33.0,79.0,121.0
34.11,-112.3,HUMBUG CREEK,AZ,Yavapai,16793131,2022/04/25,15:48:00+00,0.67,20.0,28.0,58.0,14.0,485.0
46.92972,-116.90889,POTLATCH,ID,Latah,16916277,2022/03/15,13:11:00+00,4.01,4.0,188.0,44.0,87.0,0.0
36.71039,-118.972,SQF03 PORTABLE,CA,Fresno,19722759,2022/02/09,20:09:00+00,12.39,2.0,113.0,65.0,16.0,724.0
45.82073,-113.95383,SULA,MT,Ravalli,17463835,2022/08/31,13:28:00+00,10.68,0.0,169.0,45.0,60.0,5.0
44.29856,-107.50586,HYATT HIGH,WY,Big Horn,16876333,2022/05/05,00:52:00+00,1.04,1.0,44.0,52.0,72.0,109.0
62.07806,-142.05417,CHISANA,AK,Valdez-Cordova,16904749,2022/08/19,17:57:00+00,0.96,1.0,358.0,61.0,39.0,441.0
36.72417,-118.9425,PARK RIDGE,CA,Fresno,17112631,2022/05/31,02:00:00+00,13.46,3.0,320.0,50.0,47.0,73.0
38.60757,-104.88667,FT. CARSON,CO,El Paso,16924722,2022/04/12,17:58:00+00,1.55,17.0,301.0,53.0,31.0,697.0
30.35833,-84.61139,BLOXHAM,FL,Leon,17294377,2022/03/15,13:15:00+00,9.2,4.0,107.0,59.0,88.0,40.0
32.99031,-116.06697,FISH CREEK MOUNTAINS,CA,Imperial,16802098,2022/08/31,13:26:00+00,0.71,7.0,197.0,98.0,18.0,1.0
41.64331,-114.43633,ROCK SPRING CREEK,NV,Elko,16841768,2022/04/21,11:41:00+00,2.24,1.0,238.0,27.0,67.0,0.0
44.58179,-104.7195,DEVILS TOWER,WY,Crook,17137190,2022/08/31,13:23:00+00,12.18,0.0,319.0,46.0,97.0,13.0
38.28442,-120.48975,BANNER ROAD,CA,Calaveras,17093168,2022/03/21,03:13:00+00,20.94,7.0,340.0,50.0,43.0,1.0
40.29261,-121.24394,CHESTER,CA,Plumas,16958546,2022/08/03,18:01:59+00,16.5,4.0,98.0,84.0,37.0,789.0
42.10375,-123.68508,ILLINOIS VALLEY AIRPORT,OR,Josephine,16989489,2022/08/31,12:52:00+00,19.49,0.0,230.0,49.0,75.0,0.0
32.83642,-116.67155,ALPINE,CA,San Diego,17258302,2022/08/31,12:52:00+00,11.58,4.0,110.0,77.0,36.0,0.0
55.39583,-116.10806,3 MILE (TEST AGAIN),ID,Clark,17192239,2022/02/08,20:13:00+00,0.62,4.0,231.0,31.0,61.0,9.0
39.80742,-122.94511,MENDOCINO PASS,CA,Mendocino,17209642,2022/08/31,13:05:00+00,8.35,5.0,71.0,62.0,12.0,0.0
31.78347,-110.64325,EMPIRE,AZ,Pima,16792622,2022/05/02,22:54:00+00,1.1,11.0,287.0,83.0,9.0,798.0
35.13028,-85.42778,PRENTICE COOPER SF,TN,Marion,17395227,2022/03/15,13:05:59+00,16.9,5.0,290.0,49.0,45.0,63.0
41.42711,-121.46251,ROUND MOUNTAIN,CA,Siskiyou,17102387,2022/06/07,09:14:59+00,5.7,5.0,179.0,45.0,70.0,0.0
46.92972,-116.90889,POTLATCH,ID,Latah,16916278,2022/08/31,13:11:00+00,13.72,2.0,37.0,57.0,56.0,1.0
41.83828,-123.94534,GASQUET 2,CA,Del Norte,16967232,2022/08/10,15:51:00+00,76.27,0.0,305.0,54.0,100.0,29.0
32.685,-116.97361,SAN MIGUEL,CA,San Diego,17324059,2022/03/15,12:49:59+00,5.41,1.0,12.0,52.0,87.0,0.0
44.66597,-111.09911,HEBGEN LAKE,MT,Gallatin,17036069,2022/08/31,12:40:00+00,16.95,0.0,148.0,37.0,83.0,0.0
44.54312,-72.52906,ELMORE,VT,Lamoille,17293351,2022/05/05,00:49:00+00,10.81,2.0,299.0,50.0,99.0,0.0
34.1368,-117.70757,CLAREMONT,CA,Los Angeles,17150519,2022/08/31,12:55:00+00,14.16,4.0,2.0,72.0,42.0,0.0
43.79025,-114.4218,NORTH FORK,ID,Blaine,17204776,2022/07/06,18:39:00+00,0.07,6.0,133.0,80.0,27.0,921.0
34.27111,-118.1525,CLEAR CREEK,CA,Los Angeles,17336616,2022/08/01,21:55:00+00,21.49,6.0,289.0,87.0,36.0,748.0
42.12333,-124.30028,RED MOUND,OR,Curry,17009730,2022/05/05,01:21:59+00,39.94,4.0,275.0,58.0,72.0,246.0
28.02496,-81.4812,PANTHER PORTABLE #1,FL,Collier,17532453,2022/03/15,12:36:59+00,6.52,1.0,0.0,65.0,94.0,36.0
43.28949,-102.27104,PORCUPINE,SD,Shannon,16782128,2022/06/07,08:42:00+00,6.03,10.0,310.0,52.0,100.0,0.0
36.03114,-120.05483,KETTLEMAN HILLS,CA,Kings,16798256,2022/08/31,12:51:00+00,4.14,5.0,309.0,71.0,52.0,0.0
44.67,-117.93361,BLUE CANYON,OR,Baker,16862253,2022/05/17,12:56:00+00,5.55,0.0,71.0,33.0,97.0,9.0
33.50536,-115.83969,DOS PALMAS,CA,Riverside,16805472,2022/08/31,13:15:00+00,0.28,4.0,118.0,88.0,35.0,0.0
30.02056,-84.98611,SUMATRA,FL,Liberty,17294119,2022/03/15,12:48:00+00,11.27,3.0,93.0,59.0,93.0,7.0
36.79436,-113.75056,BLACK ROCK,AZ,Mohave,16790065,2022/05/02,22:50:00+00,1.82,9.0,298.0,59.0,22.0,844.0
47.70164,-108.47808,MANNING CORRAL DOGTOWN,MT,Phillips,17114164,2022/05/09,04:41:00+00,0.91,5.0,264.0,46.0,50.0,0.0
40.45953,-115.84953,CRANE SPRINGS,NV,Elko,17109036,2022/05/04,00:26:00+00,3.11,12.0,318.0,38.0,84.0,113.0
19.67278,-156.02028,KALOKO-HONOKOHAU,HI,Hawaii,17458723,2022/03/15,13:15:59+00,0.41,3.0,135.0,69.0,74.0,0.0
35.13028,-85.42778,PRENTICE COOPER SF,TN,Marion,17395229,2022/08/31,13:05:59+00,44.93,1.0,259.0,72.0,69.0,261.0
42.20597,-121.13806,GERBER RESERVOIR,OR,Klamath,16855091,2022/08/31,12:45:00+00,4.24,2.0,300.0,50.0,47.0,0.0
44.92548,-121.1977,MUTTON MOUNTAIN,OR,Wasco,16781363,2022/08/31,12:35:00+00,7.82,8.0,48.0,73.0,31.0,0.0
36.72778,-111.82197,PARIA POINT,AZ,Coconino,16814387,2022/05/02,23:00:59+00,0.61,10.0,252.0,70.0,8.0,762.0
41.87677,-115.25817,POLE CREEK,NV,Elko,17570845,2022/08/22,16:41:00+00,13.35,9.0,186.0,73.0,29.0,725.0
44.25667,-89.81,ROME (SARATOGA),WI,Wood,17451555,2022/05/15,11:05:00+00,7.5,0.0,204.0,39.0,95.0,7.0
46.96097,-93.59841,HILL CITY,MN,Itasca,17133617,2022/08/31,13:07:00+00,19.78,2.0,326.0,60.0,100.0,111.0
33.26611,-88.79333,NOXUBEE - FTS,MS,Noxubee,17153564,2022/03/15,12:58:00+00,21.28,2.0,2.0,51.0,92.0,5.0
40.73856,-108.83658,LODORE,CO,Moffat,16806958,2022/08/31,13:23:00+00,6.0,6.0,95.0,61.0,28.0,4.0
37.52472,-109.89306,KANE GULCH,UT,San Juan,16865324,2022/03/15,21:42:00+00,0.76,4.0,203.0,61.0,18.0,747.0
33.61119,-110.41461,HILLTOP,AZ,Gila,17230115,2022/07/07,13:33:00+00,25.23,1.0,51.0,57.0,58.0,106.0
46.03783,-114.26271,LITTLE ROCK CREEK,MT,Ravalli,17284389,2022/08/31,13:09:00+00,4.61,0.0,287.0,67.0,20.0,2.0
35.69028,-101.56833,CEDAR,TX,Hutchinson,17130795,2022/08/31,12:36:00+00,9.63,1.0,256.0,66.0,90.0,3.0
43.91795,-114.19728,S-C PORTABLE #3,ID,Custer,19635718,2022/01/11,12:51:00+00,0.0,3.0,107.0,28.0,76.0,0.0
69.37,-152.13611,UMIAT AIRFIELD,AK,North Slope,17475619,2022/08/31,13:24:00+00,5.29,4.0,91.0,36.0,92.0,0.0
38.27947,-119.62331,LEAVITT LAKE,CA,Mono,19882246,2022/06/21,17:27:00+00,0.2,2.0,1.0,75.0,33.0,340.0
40.40722,-74.49417,NEW MIDDLESEX COUNTY,NJ,Middlesex,17392679,2022/08/31,13:11:00+00,27.98,3.0,283.0,73.0,84.0,77.0
65.29644,-143.07236,BEN CREEK,AK,Yukon-Koyukuk,16905264,2022/05/04,00:20:00+00,0.02,3.0,80.0,55.0,28.0,517.0
39.60933,-110.28997,BRUIN POINT,UT,Carbon,16865098,2022/06/09,21:41:00+00,4.49,2.0,147.0,77.0,17.0,801.0
48.13623,-118.97241,NESPELEM,WA,Okanogan,16783421,2022/03/15,12:57:00+00,5.51,6.0,131.0,43.0,92.0,0.0
43.84119,-118.95203,CROW FLAT,OR,Harney,16975667,2022/03/15,13:07:00+00,1.79,4.0,243.0,37.0,89.0,0.0
36.03114,-120.05483,KETTLEMAN HILLS,CA,Kings,16798255,2022/05/06,01:50:59+00,4.14,18.0,347.0,81.0,25.0,99.0
34.76067,-98.74192,WICHITA,OK,Comanche,16899882,2022/03/15,13:28:59+00,1.21,12.0,11.0,41.0,67.0,27.0
33.28056,-89.13889,TOMBIGBEE,MS,Choctaw,17388059,2022/06/14,13:01:00+00,28.57,2.0,25.0,81.0,82.0,173.0
45.8715,-112.10821,WHITEHALL,MT,Jefferson,17067560,2022/08/09,21:16:00+00,5.22,7.0,115.0,93.0,13.0,823.0
34.11486,-113.34733,SMITH PEAK,AZ,Yuma,16794163,2022/05/02,22:53:00+00,0.66,6.0,210.0,88.0,13.0,793.0
38.97924,-112.23886,BLACK CEDAR,UT,Millard,16945200,2022/08/31,13:27:00+00,14.56,4.0,107.0,67.0,28.0,4.0
35.19417,-108.16306,BLUEWATER RIDGE,NM,Cibola,17380134,2022/05/09,05:06:00+00,1.23,11.0,224.0,53.0,26.0,0.0
42.29019,-123.23339,PROVOLT SEED ORCHARD,OR,Josephine,16856892,2022/03/15,12:59:00+00,3.13,2.0,304.0,48.0,99.0,0.0
43.91253,-71.8859,WARREN,NH,Grafton,19692043,2022/08/31,12:54:00+00,22.44,3.0,201.0,68.0,92.0,175.0
43.56139,-107.395,SPLIT ROCK CREEK,WY,Washakie,16876851,2022/05/05,00:41:00+00,6.1,6.0,284.0,48.0,76.0,187.0
41.54139,-73.95,STONYKILL,NY,Dutchess,17390372,2022/03/15,12:48:00+00,6.8,3.0,254.0,42.0,71.0,134.0
32.85739,-116.62239,DESCANSO,CA,San Diego,16993073,2022/05/06,02:03:59+00,14.44,3.0,276.0,70.0,33.0,186.0
45.12958,-108.30397,WILD HORSE,MT,Big Horn,16815925,2021/12/17,02:48:00+00,12.42,4.0,247.0,10.0,80.0,0.0
42.54069,-111.85533,GRACE,ID,Caribou,16822325,2022/05/13,20:34:00+00,3.53,11.0,252.0,53.0,39.0,903.0
34.28422,-103.71497,MELROSE RANGE,NM,Curry,17502488,2022/03/15,13:14:00+00,0.11,8.0,204.0,23.0,58.0,2.0
44.9429,-116.1882,SKI HILL,ID,Valley,16945974,2022/08/31,12:59:00+00,9.31,3.0,353.0,64.0,31.0,0.0
32.783,-117.136,MISSION VALLEY,CA,San Diego,17568280,2022/08/31,12:49:59+00,6.53,2.0,109.0,67.0,76.0,4.0
34.37167,-118.84083,WILEY RIDGE,CA,Ventura,17376808,2022/03/15,21:49:59+00,13.75,8.0,241.0,71.0,35.0,616.0
46.52389,-122.19,KOSMOS,WA,Lewis,16878129,2022/03/15,13:11:00+00,40.06,4.0,112.0,41.0,97.0,0.0
36.34811,-120.60011,SANTA RITA,CA,San Benito,16798006,2022/05/06,01:57:59+00,12.53,3.0,337.0,63.0,40.0,249.0
32.65833,-94.11639,CADDO LAKE,TX,Harrison,17341985,2022/03/15,13:11:00+00,7.19,2.0,311.0,53.0,100.0,6.0
42.85881,-123.37844,SILVER BUTTE,OR,Douglas,16859986,2022/07/19,20:15:00+00,32.38,1.0,27.0,78.0,50.0,984.0
46.48369,-104.06689,CANNONBALL CREEK,MT,Fallon,16833335,2022/05/10,03:40:00+00,1.0,16.0,233.0,46.0,58.0,0.0
42.85639,-107.27222,FALES ROCK,WY,Natrona,16873783,2022/05/05,01:11:00+00,6.0,4.0,163.0,44.0,80.0,77.0
45.33717,-108.49216,PRYOR MOUNTAIN,MT,Big Horn,16778796,2022/06/26,23:18:00+00,14.36,2.0,76.0,66.0,44.0,734.0
43.56994,-86.07119,HURON-MANISTEE WEST PORT,MI,Oceana,17333533,2021/11/29,13:15:59+00,0.0,0.0,311.0,34.0,99.0,0.0
36.01766,-76.89126,GREENS CROSS,NC,Bertie,17303847,2022/03/15,13:17:00+00,9.39,0.0,250.0,44.0,95.0,96.0
42.0275,-74.26889,CATSKILL CENTER,NY,Ulster,17459744,2022/03/15,12:48:00+00,9.22,4.0,30.0,37.0,86.0,77.0
32.3675,-88.45667,LAUDERDALE,MS,Lauderdale,17401881,2022/03/15,13:14:00+00,9.43,3.0,51.0,50.0,98.0,4.0
33.50536,-115.83969,DOS PALMAS,CA,Riverside,16805471,2022/05/05,01:15:00+00,0.23,5.0,172.0,95.0,8.0,337.0
40.43971,-78.41839,BLAIR HELIBASE,PA,Blair,17549599,2022/03/15,13:15:59+00,7.3,2.0,112.0,45.0,66.0,242.0
35.05197,-107.42344,LAGUNA,NM,Cibola,17457435,2022/04/19,09:33:59+00,0.55,1.0,30.0,50.0,28.0,0.0
40.88444,-110.82917,BEAR RIVER,UT,Summit,17156393,2022/06/30,08:03:59+00,8.77,1.0,148.0,52.0,92.0,0.0
30.98556,-101.15778,BARNHART,TX,Crockett,17311780,2022/03/24,06:08:00+00,0.29,4.0,266.0,41.0,39.0,0.0
66.82842,-154.32345,NORUTAK LAKE,AK,Northwest Arctic,16902948,2022/07/07,14:22:00+00,1.0,3.0,125.0,54.0,99.0,27.0
32.20361,-104.69028,QUEEN,NM,Eddy,17415711,2022/08/31,13:12:59+00,13.43,8.0,342.0,60.0,98.0,1.0
33.81898,-117.57355,CORONA 1,CA,Riverside,17258548,2022/06/23,01:12:00+00,10.73,4.0,341.0,91.0,30.0,319.0
44.15722,-118.47139,CRANE PRAIRIE,OR,Grant,16975149,2022/05/04,00:29:00+00,6.3,5.0,310.0,51.0,53.0,218.0
39.87184,-121.76898,COHASSET,CA,Butte,17091887,2022/06/24,01:50:59+00,25.66,7.0,165.0,92.0,20.0,343.0
37.51228,-108.4998,DOLORES D5 PORTABLE,CO,Montezuma,19763720,2022/05/26,22:09:00+00,0.0,3.0,223.0,79.0,11.0,468.0
45.07332,-107.88872,BIGHORN MOUNTAIN,MT,Big Horn,16778542,2022/08/31,13:18:00+00,12.5,2.0,179.0,67.0,22.0,34.0
61.73372,-148.81775,LITTLE GRANITE CREEK,AK,Anchorage,17483555,2022/08/31,12:57:00+00,11.01,0.0,323.0,47.0,92.0,0.0
34.69817,-89.30406,WINBORN,MS,Marshall,17153311,2022/08/19,12:10:00+00,36.47,0.0,271.0,67.0,95.0,25.0
31.04944,-98.525,COLORADO BEND,TX,San Saba,17312287,2022/04/25,16:07:00+00,2.08,8.0,36.0,64.0,79.0,183.0
36.36889,-83.89861,CHUCK SWAN SF,TN,Union,17394209,2022/03/15,13:05:59+00,14.14,3.0,95.0,50.0,44.0,105.0
47.22028,-121.96389,ENUMCLAW,WA,King,17389620,2022/05/22,18:09:00+00,45.04,3.0,355.0,63.0,52.0,747.0
32.3025,-89.48444,BIENVILLE,MS,Scott,17045801,2022/08/31,13:07:00+00,52.79,3.0,11.0,73.0,100.0,29.0
40.85975,-109.10344,KINGS POINT,UT,Daggett,16871995,2022/04/21,12:27:00+00,3.49,1.0,136.0,34.0,55.0,0.0
58.775,-135.03292,BERNERS BAY,AK,Juneau,19707397,2021/12/14,04:08:00+00,29.98,1.0,305.0,6.0,86.0,0.0
34.26267,-114.03767,FWS R2 PORT #2,AZ,La Paz,17490444,2022/01/11,17:16:00+00,2.65,1.0,321.0,58.0,25.0,264.0
39.29158,-82.39231,ZALESKI,OH,Vinton,17366301,2022/03/15,12:51:00+00,10.67,0.0,46.0,35.0,94.0,60.0
45.10392,-108.21972,HILLSBORO,MT,Carbon,17379877,2022/05/06,02:29:59+00,1.52,11.0,226.0,69.0,24.0,19.0
42.81733,-83.67944,HOLLY,MI,Oakland,17421346,2022/08/31,13:01:00+00,16.19,4.0,215.0,68.0,74.0,200.0
46.86158,-94.72936,BADOURA,MN,Hubbard,17133356,2022/08/31,13:05:59+00,17.63,0.0,114.0,59.0,100.0,120.0
45.45861,-121.44639,POLLYWOG,OR,Wasco,16980014,2022/06/07,09:07:00+00,8.6,0.0,287.0,41.0,82.0,0.0
39.63369,-109.26525,MCCOOK RIDGE,UT,Uintah,16870460,2022/08/31,13:27:00+00,9.57,6.0,153.0,62.0,31.0,30.0
41.82944,-103.70806,SCOTTS BLUFF,NE,Scotts Bluff,17123370,2022/08/31,12:35:00+00,7.38,3.0,101.0,69.0,56.0,2.0
37.81722,-121.77889,MALLORY RIDGE,CA,Contra Costa,17163544,2022/08/31,13:02:00+00,3.25,5.0,291.0,75.0,6.0,0.0
37.37842,-119.62953,BATTERSON,CA,Madera,17193550,2022/04/27,17:48:00+00,21.79,4.0,142.0,69.0,40.0,763.0
33.94917,-116.65722,WHITEWATER,CA,Riverside,17227059,2022/08/31,12:49:59+00,5.96,17.0,287.0,87.0,20.0,0.0
36.70117,-112.22689,WARM SPRINGS CANYON,AZ,Coconino,16937002,2022/03/15,12:48:00+00,16.15,3.0,154.0,30.0,41.0,0.0
66.97453,-160.44857,KIANA,AK,Northwest Arctic,16785438,2022/05/02,23:11:00+00,17.73,6.0,334.0,39.0,65.0,347.0
41.54139,-73.95,STONYKILL,NY,Dutchess,17390373,2022/08/10,14:48:00+00,22.53,3.0,335.0,82.0,47.0,727.0
35.09653,-119.77322,CARRIZO,CA,San Luis Obispo,16797233,2022/08/31,12:59:59+00,5.98,8.0,142.0,76.0,38.0,0.0
40.25074,-123.3198,RUTH,CA,Trinity,17305381,2022/08/31,07:23:00+00,47.73,0.0,357.0,59.0,56.0,0.0
41.64353,-123.44407,DUTCH-INDY,CA,Siskiyou,17587749,2022/08/31,12:57:00+00,0.53,3.0,356.0,63.0,49.0,0.0
39.58983,-121.63516,OPENSHAW,CA,Butte,17091635,2022/06/24,01:55:00+00,17.38,11.0,156.0,99.0,18.0,370.0
65.34986,-155.93525,COTTONWOOD,AK,Yukon-Koyukuk,16897058,2022/05/23,19:18:00+00,0.03,11.0,115.0,59.0,26.0,520.0
38.44579,-76.09315,BLACKWATER,MD,Dorchester,17170985,2022/03/15,12:56:00+00,6.84,5.0,156.0,49.0,69.0,185.0
36.28556,-112.07861,LINDBERGH HILL,AZ,Coconino,16906044,2022/06/08,10:08:00+00,3.46,1.0,338.0,55.0,38.0,0.0
47.77944,-93.64611,EFFIE,MN,Itasca,17133097,2022/08/31,13:07:00+00,17.33,1.0,331.0,57.0,99.0,57.0
32.09217,-104.2905,CARLSBAD PORTABLE,NM,Eddy,17399873,2022/05/02,22:41:00+00,0.09,18.0,259.0,92.0,7.0,664.0
43.79025,-114.4218,NORTH FORK,ID,Blaine,17204775,2022/03/15,12:39:00+00,1.54,2.0,256.0,29.0,76.0,0.0
32.39806,-110.725,SCOUT CAMP,AZ,Pima,16934458,2022/08/31,13:31:59+00,22.59,21.0,80.0,60.0,67.0,46.0
34.2925,-107.76806,DATIL,NM,Catron,17297188,2022/05/05,01:11:00+00,0.7,15.0,287.0,53.0,17.0,254.0
45.01394,-110.03869,SODA BUTTE,WY,Park,17564702,2022/06/29,07:17:00+00,19.41,2.0,339.0,54.0,56.0,0.0
35.76833,-82.19361,BUSICK,NC,Yancey,17055010,2022/05/31,02:05:00+00,33.61,1.0,162.0,60.0,98.0,0.0
47.50174,-94.92511,BEMIDJI,MN,Beltrami,17132843,2022/08/31,13:07:00+00,15.74,0.0,213.0,64.0,84.0,114.0
36.64939,-92.86872,AVA,MO,Douglas,17068591,2022/03/15,12:54:00+00,7.95,4.0,108.0,47.0,94.0,4.0
37.79306,-106.77861,BLUE PARK,CO,Mineral,16927017,2022/08/31,12:58:00+00,10.39,3.0,60.0,40.0,87.0,3.0
47.79672,-107.02175,KING COULEE,MT,Valley,16830512,2022/05/09,04:44:00+00,0.75,2.0,274.0,51.0,44.0,0.0
34.82499,-77.32307,HOFMANN FOREST,NC,Onslow,17274670,2022/08/31,13:11:00+00,35.4,2.0,354.0,82.0,75.0,334.0
34.96017,-79.69037,NC FIRE RAWS #1,NC,Richmond,17429819,2022/01/04,15:49:59+00,3.37,1.0,188.0,33.0,66.0,126.0
34.20333,-112.34556,CROWN KING,AZ,Yavapai,17014318,2022/04/13,01:28:00+00,2.4,7.0,285.0,44.0,11.0,221.0
38.34569,-105.45192,COPPER GULCH,CO,Fremont,16805677,2022/08/31,12:49:00+00,9.4,0.0,322.0,48.0,87.0,3.0
41.91072,-119.93933,BARREL SPRINGS,NV,Washoe,16803890,2022/05/05,00:59:59+00,7.13,7.0,259.0,70.0,22.0,468.0
45.13931,-103.91264,INDIAN BUTTE,SD,Butte,16863023,2022/05/15,10:56:00+00,3.68,7.0,280.0,46.0,90.0,0.0
44.84733,-116.42767,WEISER RIVER,ID,Adams,16946231,2022/07/04,11:42:00+00,3.36,3.0,326.0,56.0,75.0,0.0
43.47267,-110.01825,RASPBERRY,WY,Fremont,16943156,2022/06/08,10:11:00+00,4.21,0.0,100.0,26.0,82.0,0.0
43.17389,-91.24417,YELLOW RIVER STATE FOREST,IA,Allamakee,17485850,2022/04/19,10:08:00+00,36.58,2.0,207.0,27.0,76.0,0.0
40.278,-109.28878,YAMPA PLATEAU,UT,Uintah,16869429,2022/04/25,16:27:00+00,3.84,3.0,272.0,46.0,63.0,630.0
48.11556,-120.10444,DOUGLAS INGRAM RIDGE,WA,Okanogan,16982076,2022/08/31,13:05:59+00,1.07,4.0,333.0,71.0,34.0,0.0
36.16083,-88.8001,GREENFIELD,TN,Weakley,17393707,2022/08/31,13:05:00+00,41.12,1.0,130.0,73.0,82.0,163.0
47.87631,-118.09608,WELLPINIT,WA,Stevens,17118493,2022/08/31,13:09:00+00,9.13,0.0,312.0,60.0,56.0,0.0
32.66778,-109.78806,NOON CREEK,AZ,Graham,16934198,2022/08/31,12:36:59+00,12.81,9.0,237.0,63.0,71.0,0.0
44.04669,-120.66958,SALT CREEK-PRINEVILLE,OR,Crook,16859442,2022/04/14,01:49:00+00,5.94,6.0,293.0,36.0,37.0,83.0
44.59811,-119.30765,BOARD CREEK,OR,Grant,16857646,2022/05/04,00:29:00+00,6.66,6.0,314.0,53.0,56.0,535.0
41.83222,-95.92806,LOESS HILLS STATE FOREST,IA,Harrison,17425183,2022/04/19,10:12:00+00,173.51,1.0,178.0,18.0,78.0,0.0
43.49931,-121.05839,CABIN LAKE,OR,Lake,16971322,2022/08/31,13:07:00+00,3.16,0.0,336.0,44.0,65.0,0.0
65.9198,-145.02635,PREACHER CREEK,AK,Yukon-Koyukuk,16895524,2022/07/07,14:22:00+00,0.85,7.0,267.0,67.0,65.0,55.0
38.7025,-86.72724,IIC NORTH PORTABLE,IN,Martin,17424426,2022/04/24,15:10:00+00,19.55,6.0,186.0,76.0,48.0,467.0
43.20278,-123.7175,BURNT RIDGE,OR,Coos,16853057,2022/05/05,00:35:00+00,27.57,6.0,243.0,62.0,59.0,470.0
36.79436,-113.75056,BLACK ROCK,AZ,Mohave,16790066,2022/08/31,12:49:59+00,7.31,0.0,323.0,70.0,25.0,0.0
31.87208,-109.98163,RO PORTABLE #2,AZ,Cochise,17319471,2022/03/15,13:18:00+00,0.32,2.0,4.0,54.0,18.0,0.0
44.25667,-89.81,ROME (SARATOGA),WI,Wood,17451554,2022/03/15,13:05:00+00,1.19,1.0,77.0,29.0,100.0,12.0
46.776,-104.58019,PINE HILL,MT,Wibaux,16833594,2022/08/31,13:25:00+00,12.97,2.0,191.0,69.0,45.0,72.0
46.34417,-91.54333,BARNES,WI,Bayfield,17450530,2022/08/31,13:05:59+00,16.26,1.0,321.0,64.0,86.0,155.0
34.68306,-78.58167,TURNBULL CREEK,NC,Bladen,17342491,2022/08/31,13:18:59+00,30.84,2.0,22.0,82.0,67.0,73.0
33.65058,-104.32133,EIGHT MILE DRAW,NM,Chaves,16837683,2022/03/15,12:36:59+00,0.12,4.0,352.0,28.0,47.0,0.0
42.89838,-112.60285,NWS IWOS 2 (PIH),ID,Bingham,17493278,2022/03/15,13:26:00+00,21.75,19.0,144.0,42.0,45.0,0.0
45.21731,-123.53578,RYE MOUNTAIN,OR,Yamhill,16860486,2022/05/05,01:15:00+00,37.45,2.0,293.0,55.0,72.0,198.0
40.25074,-123.3198,RUTH,CA,Trinity,17305380,2022/03/15,13:23:00+00,34.05,1.0,77.0,47.0,100.0,0.0
45.81556,-114.25833,WEST FORK,MT,Ravalli,17036334,2022/08/13,20:15:00+00,14.53,5.0,194.0,94.0,16.0,871.0
32.13669,-94.84736,HENDERSON,TX,Rusk,17312802,2022/08/31,13:05:59+00,27.01,0.0,66.0,76.0,97.0,131.0
39.30351,-121.11725,READER RANCH,CA,Nevada,17092915,2022/03/21,03:14:00+00,24.91,0.0,104.0,55.0,31.0,1.0
40.71994,-123.92829,KNEELAND,CA,Humboldt,17503003,2022/08/31,12:56:00+00,42.89,3.0,103.0,69.0,32.0,0.0
36.13472,-115.43,RED ROCK,NV,Clark,16846640,2022/03/15,12:33:59+00,0.1,6.0,261.0,41.0,43.0,0.0
44.66611,-118.92194,KEENEY TWO,OR,Grant,17020963,2022/05/02,23:29:00+00,7.58,6.0,327.0,37.0,85.0,614.0
35.54172,-76.22308,FAIRFIELD,NC,Hyde,17084196,2022/03/15,13:17:00+00,7.14,1.0,349.0,55.0,86.0,279.0
35.97444,-92.19417,BLANCHARD SPRINGS,AR,Stone,17531668,2022/03/15,13:17:00+00,11.59,1.0,351.0,49.0,88.0,10.0
45.15694,-109.36056,TIMBERCREST,MT,Carbon,17082185,2022/05/04,00:14:59+00,0.48,7.0,265.0,39.0,90.0,164.0
34.29058,-117.2135,ROCK CAMP,CA,San Bernardino,17411369,2022/08/31,13:02:00+00,20.97,1.0,127.0,71.0,35.0,0.0
32.99177,-111.53264,CASA GRANDE,AZ,Pinal,17469217,2022/07/07,14:23:00+00,1.16,2.0,87.0,85.0,19.0,253.0
46.26833,-117.49833,ALDER RIDGE,WA,Garfield,16993583,2022/08/31,13:10:00+00,8.01,1.0,43.0,74.0,22.0,1.0
30.105,-94.93139,DAYTON,TX,Liberty,17322276,2022/03/15,13:21:59+00,11.97,4.0,295.0,54.0,80.0,57.0
42.47181,-119.17839,FISH FIN RIM,OR,Harney,16855599,2022/08/31,12:54:00+00,2.88,6.0,234.0,60.0,34.0,0.0
40.39433,-117.62567,SIARD,NV,Pershing,16849204,2022/08/31,12:38:00+00,1.93,1.0,87.0,56.0,32.0,0.0
60.72697,-150.87592,SWANSON RIVER,AK,Kenai Peninsula,16898086,2022/05/26,21:49:59+00,0.02,2.0,305.0,72.0,30.0,808.0
46.24083,-84.51111,RUDYARD,MI,Chippewa,17281058,2022/08/31,13:15:00+00,12.67,6.0,283.0,63.0,78.0,175.0
41.80086,-118.45136,TEXAS SPRINGS,NV,Humboldt,16848691,2022/03/15,12:38:00+00,0.1,10.0,303.0,38.0,69.0,0.0
37.8615,-105.28408,BLACK MOUNTAIN,CO,Huerfano,17006394,2022/08/31,12:56:00+00,11.83,3.0,328.0,59.0,47.0,8.0
33.15556,-92.19111,FELSENTHAL NWR,AR,Union,17475096,2022/03/21,23:24:00+00,8.16,5.0,157.0,74.0,41.0,87.0
34.1368,-117.70757,CLAREMONT,CA,Los Angeles,17150517,2022/03/15,12:55:00+00,11.56,2.0,21.0,51.0,49.0,0.0
37.46247,-119.78622,SNF02 PORTABLE,CA,Madera,19666439,2022/03/15,12:52:00+00,12.14,3.0,31.0,51.0,44.0,0.0
40.61051,-122.52731,WHISKEYTOWN HQ#2,CA,Shasta,17271078,2022/06/28,06:01:00+00,31.16,1.0,188.0,82.0,25.0,0.0
33.23833,-95.92472,GREENVILLE,TX,Hunt,17320743,2022/08/31,13:07:00+00,20.2,1.0,131.0,75.0,97.0,92.0
42.97236,-114.06253,ROCK LAKE,ID,Lincoln,16825396,2022/05/18,13:44:59+00,2.08,0.0,96.0,50.0,61.0,148.0
33.42361,-108.11,BEAVERHEAD,NM,Catron,17041195,2022/03/15,13:08:00+00,0.6,0.0,316.0,13.0,55.0,0.0
48.93855,-116.73451,SADDLE PASS,ID,Boundary,16921393,2022/03/15,13:08:00+00,3.82,2.0,109.0,27.0,100.0,0.0
61.75898,-150.05003,WILLOW,AK,Matanuska-Susitna,17005094,2022/05/16,20:58:00+00,0.0,3.0,357.0,61.0,25.0,642.0
21.20333,-156.96611,MAKAPULAPAI,HI,Kalawao,16909633,2022/05/17,13:15:59+00,2.9,4.0,206.0,68.0,80.0,0.0
67.02894,-143.29786,GRAPHITE LAKE,AK,Yukon-Koyukuk,16896551,2022/07/07,14:18:00+00,1.76,13.0,45.0,67.0,66.0,52.0
34.14944,-105.00597,ROSWELL #2 PORTABLE,NM,Lincoln,17405515,2022/03/15,13:21:00+00,0.35,2.0,283.0,19.0,71.0,0.0
47.97038,-123.4987,HURRICANE,WA,Clallam,16977983,2022/07/07,14:28:00+00,0.38,7.0,156.0,43.0,97.0,37.0
42.93611,-122.43472,MOUNT STELLA,OR,Jackson,16987684,2022/03/15,12:40:00+00,7.38,3.0,281.0,35.0,100.0,0.0
45.59528,-123.48361,SOUTH FORK,OR,Tillamook,17175577,2022/07/27,22:12:59+00,77.18,0.0,230.0,90.0,40.0,833.0
29.66917,-94.43833,ANAHUAC,TX,Chambers,17008167,2022/04/04,17:13:00+00,5.37,15.0,109.0,73.0,83.0,284.0
44.11114,-122.57725,TROUT CREEK,OR,Lane,16854104,2022/08/31,13:15:00+00,52.47,0.0,263.0,66.0,68.0,0.0
46.31472,-111.69667,ELKHORN,MT,Broadwater,17529114,2022/08/31,12:54:00+00,10.16,0.0,10.0,67.0,26.0,2.0
40.35152,-120.30382,CALFIRE PORTABLE 22,CA,Lassen,17226022,2021/12/15,14:48:59+00,7.1,1.0,301.0,21.0,93.0,0.0
38.01208,-76.89056,GDR-PORT-QD,VA,Rappahannock,17490993,2022/03/15,18:42:00+00,0.0,5.0,245.0,73.0,23.0,781.0
33.50536,-115.83969,DOS PALMAS,CA,Riverside,16805470,2022/03/15,13:15:00+00,0.21,0.0,64.0,52.0,28.0,0.0
36.56707,-118.95788,SHADEQUARTER,CA,Tulare,17103149,2022/03/21,02:56:00+00,12.76,13.0,317.0,40.0,100.0,0.0
42.06944,-115.78611,POLE CREEK,ID,Owyhee,16817200,2022/05/02,22:42:00+00,5.82,20.0,279.0,36.0,91.0,230.0
37.49611,-107.72944,BIG BEAR PARK,CO,La Plata,17351716,2022/08/23,20:55:00+00,13.63,8.0,135.0,56.0,74.0,280.0
39.425,-122.97722,SODA CREEK,CA,Lake,16959787,2022/05/17,13:21:59+00,9.06,0.0,158.0,37.0,97.0,3.0
42.62614,-117.39514,GRASSY MOUNTAIN,OR,Malheur,16861237,2022/05/05,01:24:00+00,25.41,5.0,123.0,69.0,32.0,371.0
40.05886,-120.09372,DOYLE,CA,Lassen,16840763,2022/08/31,13:11:00+00,0.44,5.0,140.0,95.0,15.0,637.0
33.34688,-82.21222,FORT GORDON,GA,Richmond,17454350,2022/04/28,19:02:00+00,13.32,4.0,112.0,81.0,22.0,1048.0
40.95278,-110.48056,HEWINTA,UT,Summit,16949545,2022/06/30,08:11:00+00,0.54,4.0,187.0,50.0,77.0,0.0
42.10375,-123.68508,ILLINOIS VALLEY AIRPORT,OR,Josephine,16989487,2022/03/15,12:52:00+00,5.46,2.0,127.0,47.0,99.0,0.0
46.15321,-85.27071,REXTON,MI,Mackinac,17280808,2022/05/08,04:31:00+00,1.88,2.0,179.0,41.0,41.0,0.0
39.18383,-120.88442,SECRET TOWN,CA,Nevada,17102893,2022/03/21,03:29:00+00,34.46,0.0,26.0,50.0,48.0,0.0
44.925,-123.46944,ROCKHOUSE 1,OR,Polk,17176860,2022/06/24,02:13:00+00,56.71,4.0,52.0,65.0,52.0,300.0
42.1,-77.1,GANG MILLS,NY,Steuben,17391137,2022/03/15,13:08:00+00,4.84,0.0,156.0,31.0,100.0,81.0
40.56633,-116.75769,BEACON LIGHT,NV,Lander,16837944,2022/03/15,12:39:00+00,0.58,2.0,142.0,42.0,57.0,0.0
40.61722,-109.24278,DIAMOND RIM,UT,Uintah,16871473,2022/08/31,13:27:00+00,8.06,4.0,14.0,65.0,24.0,26.0
36.01175,-121.24168,FORT HUNTER LIGGETT,CA,Monterey,17252908,2022/08/31,13:25:00+00,11.77,0.0,87.0,52.0,72.0,0.0
55.39583,-116.10806,3 MILE (TEST AGAIN),ID,Clark,17192238,2022/01/18,15:13:00+00,0.43,1.0,46.0,18.0,87.0,5.0
35.7772,-118.43374,RIVERKERN,CA,Kern,17115191,2022/08/31,12:57:00+00,6.49,1.0,68.0,74.0,36.0,0.0
47.56214,-107.5285,SOUTH SAWMILL CREEK,MT,Garfield,16831021,2022/06/20,23:09:00+00,6.19,7.0,262.0,69.0,53.0,460.0
35.8644,-120.80298,BRADLEY,CA,Monterey,17375264,2022/03/15,13:12:59+00,5.28,0.0,120.0,41.0,77.0,0.0
44.84883,-114.02639,EZRA CREEK,ID,Lemhi,16822828,2022/08/01,15:26:00+00,5.28,4.0,189.0,73.0,29.0,375.0
33.55253,-109.31731,STRAY HORSE,AZ,Greenlee,17272362,2022/08/31,13:18:59+00,20.05,4.0,61.0,59.0,62.0,6.0
31.94972,-90.38056,COPIAH,MS,Copiah,17365792,2022/08/31,13:10:00+00,42.36,1.0,203.0,77.0,100.0,194.0
38.30292,-116.19342,PANCAKE,NV,Nye,16839231,2022/08/31,13:27:00+00,3.11,6.0,134.0,56.0,49.0,2.0
56.97389,-133.66,KAKE,AK,Wrangell-Petersburg,17005616,2022/08/31,12:56:00+00,47.78,4.0,289.0,52.0,98.0,0.0
35.38072,-120.18809,LA PANZA,CA,San Luis Obispo,17098026,2022/03/15,12:55:00+00,5.76,0.0,227.0,32.0,80.0,0.0
36.58194,-113.73194,TWEEDS POINT,AZ,Mohave,16788526,2022/03/15,12:33:59+00,0.16,4.0,162.0,50.0,22.0,0.0
47.61992,-119.89939,DOUGLAS,WA,Douglas,16872501,2022/03/15,12:49:00+00,0.75,5.0,161.0,36.0,100.0,0.0
40.61722,-109.24278,DIAMOND RIM,UT,Uintah,16871471,2022/04/25,16:27:00+00,4.83,5.0,249.0,41.0,50.0,510.0
41.97639,-123.61222,CRAZY PEAK,CA,Del Norte,16991534,2022/03/15,12:39:00+00,7.0,5.0,283.0,40.0,97.0,0.0
36.8837,-119.47572,FANCHER CREEK,CA,Fresno,17093421,2022/03/21,03:01:00+00,8.62,6.0,76.0,53.0,73.0,2.0
47.04593,-114.11207,FINNEY'S MEADOW,MT,Missoula,17191734,2022/03/15,13:28:00+00,3.62,5.0,206.0,39.0,87.0,0.0
41.8019,-122.1097,JUANITA LAKE,CA,Siskiyou,16954669,2022/03/15,13:18:00+00,10.62,2.0,354.0,39.0,89.0,0.0
45.11389,-118.40389,J RIDGE,OR,Union,16999983,2022/07/21,22:28:00+00,13.15,3.0,284.0,89.0,15.0,924.0
30.54194,-82.34333,EDDY TOWER,FL,Baker,17047587,2022/03/15,12:57:00+00,8.94,0.0,57.0,57.0,98.0,35.0
38.7846,-120.31051,SUGARLOAF (ENF),CA,El Dorado,17530135,2022/08/31,13:24:00+00,0.33,1.0,307.0,72.0,26.0,47.0
46.35781,-118.8685,JUNIPER DUNES,WA,Franklin,16873014,2022/08/31,12:49:00+00,5.67,12.0,95.0,72.0,35.0,0.0
44.85028,-109.61139,CRANDALL,WY,Park,16929842,2022/05/16,12:12:00+00,3.5,5.0,281.0,45.0,73.0,1.0
41.0805,-119.77672,JUNIPER SPRINGS,NV,Washoe,16803376,2022/03/15,13:25:00+00,3.96,8.0,254.0,37.0,88.0,0.0
38.91189,-122.70631,KONOCTI,CA,Lake,17095723,2022/06/24,01:57:00+00,18.01,10.0,258.0,88.0,16.0,365.0
19.92417,-155.79361,WAIKOLOA,HI,Hawaii,17559060,2022/03/21,02:35:59+00,6.76,5.0,336.0,76.0,74.0,365.0
47.32594,-101.37736,KNIFE RIVER,ND,Mercer,17524255,2022/06/01,03:51:00+00,4.29,5.0,242.0,49.0,47.0,0.0
37.75947,-119.82056,CRANE,CA,Mariposa,16902206,2022/05/12,08:00:00+00,13.82,4.0,103.0,34.0,58.0,0.0
45.21167,-123.77194,CEDAR,OR,Tillamook,16992315,2022/08/31,13:11:00+00,141.28,0.0,140.0,60.0,74.0,0.0
60.32194,-160.18778,KILBUCK,AK,Bethel,16897572,2022/05/26,21:57:00+00,0.15,11.0,43.0,56.0,54.0,543.0
41.68694,-116.76611,ANTELOPE LAKE,NV,Elko,16842282,2022/05/31,01:43:00+00,5.14,8.0,33.0,45.0,62.0,162.0
31.71361,-82.38778,BAXLEY,GA,Appling,17327648,2022/05/11,20:03:59+00,7.73,14.0,18.0,83.0,29.0,840.0
38.86194,-122.41722,KNOXVILLE CREEK,CA,Lake,16804670,2022/08/31,13:09:00+00,20.62,4.0,356.0,55.0,26.0,0.0
57.8,-135.13333,HOONAH,AK,Skagway-Hoonah-Angoon,17002277,2022/08/31,12:56:00+00,47.31,0.0,287.0,52.0,100.0,0.0
35.87111,-117.91833,FIVE MILE,CA,Inyo,17146672,2022/08/31,13:26:00+00,0.86,3.0,7.0,85.0,18.0,1.0
43.55056,-105.09222,ROCHELLE HILLS,WY,Campbell,16924980,2022/08/31,13:05:00+00,9.85,3.0,151.0,69.0,38.0,24.0
31.10972,-83.42694,ADEL - MARTY,GA,Cook,17327906,2022/02/19,12:04:00+00,4.13,3.0,328.0,39.0,73.0,0.0
39.47469,-121.20241,PIKE COUNTY LOOKOUT,CA,Yuba,16962355,2022/06/28,06:10:00+00,41.77,7.0,90.0,73.0,22.0,0.0
65.29644,-143.07236,BEN CREEK,AK,Yukon-Koyukuk,16905265,2022/08/31,13:20:00+00,6.57,3.0,124.0,41.0,99.0,0.0
31.28028,-93.83861,SABINE SOUTH,TX,Sabine,17051424,2022/03/15,13:08:00+00,8.98,0.0,290.0,54.0,100.0,11.0
36.8422,-121.36216,HOLLISTER,CA,San Benito,17375525,2022/08/31,13:12:59+00,8.87,0.0,294.0,53.0,90.0,0.0
35.72167,-118.49889,WOFFORD HEIGHTS,CA,Kern,16798519,2022/08/31,13:01:00+00,2.28,6.0,290.0,72.0,34.0,0.0
41.08889,-74.91278,BLUE MOUNTAIN LAKES,NJ,Sussex,17461792,2022/08/11,21:14:59+00,30.31,1.0,349.0,81.0,41.0,93.0
35.66261,-118.02547,WALKER PASS EAST,CA,Kern,16812864,2022/07/05,05:26:00+00,0.0,10.0,2.0,59.0,42.0,0.0
40.06866,-121.584,CARPENTER RIDGE,CA,Butte,17097522,2022/08/31,12:55:00+00,39.51,5.0,174.0,68.0,22.0,0.0
34.77556,-94.89778,KIAMICHI,OK,Le Flore,17044266,2022/03/15,12:59:00+00,8.14,4.0,36.0,47.0,100.0,1.0
44.60778,-123.475,GELLATLY,OR,Benton,17420829,2022/08/31,13:09:00+00,62.26,5.0,252.0,54.0,98.0,0.0
39.58694,-107.40444,STORM KING MOUNTAIN,CO,Garfield,16789064,2022/08/23,20:58:59+00,9.69,8.0,116.0,68.0,35.0,593.0
38.78042,-111.86547,LOST CREEK,UT,Sevier,16867120,2022/08/31,12:36:59+00,5.51,6.0,211.0,64.0,28.0,0.0
33.75474,-117.5001,TEMESCAL 2  (CNF),CA,Riverside,17156667,2022/08/31,12:42:00+00,1.74,3.0,16.0,83.0,32.0,0.0
40.43784,-122.83093,ARBUCKLE BASIN,CA,Shasta,17089839,2022/08/31,12:54:00+00,16.12,7.0,296.0,72.0,39.0,0.0
45.45964,-111.24447,SHENANGO,MT,Gallatin,16918063,2022/08/31,12:40:00+00,18.92,3.0,260.0,54.0,51.0,0.0
46.32268,-114.03881,SOFT ROCK,MT,Ravalli,19840518,2022/07/22,22:12:00+00,5.24,13.0,330.0,88.0,13.0,809.0
40.21108,-106.3295,GUNSIGHT,CO,Grand,16806708,2022/03/15,12:46:00+00,1.07,2.0,29.0,16.0,80.0,0.0
32.39139,-82.03722,METTER,GA,Candler,17327131,2022/08/31,13:04:00+00,24.26,3.0,340.0,80.0,79.0,208.0
39.35019,-113.38489,TULE VALLEY,UT,Millard,16867373,2022/08/31,12:36:59+00,3.02,3.0,122.0,77.0,18.0,0.0
37.39833,-121.80694,SANJOSE,CA,Santa Clara,17535249,2022/08/31,12:52:00+00,2.26,0.0,276.0,51.0,97.0,0.0
36.23118,-118.86902,MILO,CA,Tulare,17290281,2022/03/21,03:27:59+00,11.87,8.0,107.0,50.0,85.0,0.0
31.94972,-90.38056,COPIAH,MS,Copiah,17365791,2022/03/15,13:10:00+00,8.73,8.0,297.0,53.0,98.0,8.0
62.72388,-154.0764,FAREWELL,AK,Yukon-Koyukuk,16787243,2022/08/31,12:54:00+00,8.3,2.0,11.0,48.0,100.0,0.0
37.5425,-104.03194,PINION CANYON,CO,Otero,16942128,2022/08/31,13:24:00+00,10.41,9.0,193.0,68.0,69.0,39.0
31.395,-95.13889,RATCLIFF,TX,Houston,17051167,2022/08/31,13:02:59+00,25.64,0.0,30.0,72.0,98.0,21.0
31.41056,-90.84667,BUDE,MS,Franklin,17045282,2022/08/19,13:05:59+00,41.26,3.0,92.0,74.0,97.0,54.0
37.47312,-122.298,PULGAS,CA,Alameda,17111837,2022/08/31,13:18:59+00,0.01,0.0,169.0,56.0,96.0,0.0
36.20127,-82.38883,WATAUGA,TN,Unicoi,17548070,2022/08/31,13:05:59+00,33.28,2.0,276.0,66.0,94.0,125.0
39.60358,-114.66942,H-T PORTABLE #3,NV,White Pine,17276976,2022/02/27,21:12:00+00,62.53,4.0,134.0,44.0,22.0,657.0
40.39433,-117.62567,SIARD,NV,Pershing,16849203,2022/05/02,22:38:00+00,0.96,23.0,306.0,58.0,31.0,823.0
36.26667,-115.6,KYLE CANYON,NV,Clark,17128493,2022/03/15,12:49:59+00,0.12,6.0,239.0,36.0,47.0,0.0
35.19417,-108.16306,BLUEWATER RIDGE,NM,Cibola,17380135,2022/08/31,13:05:59+00,11.46,2.0,156.0,55.0,85.0,3.0
44.75778,-117.97111,ELK CREEK,OR,Baker,17183526,2022/06/29,06:55:00+00,15.22,1.0,34.0,44.0,80.0,0.0
35.46935,-79.38096,HORSESHOE HOUSE,NC,Moore,17473065,2022/03/15,13:15:59+00,8.86,0.0,271.0,41.0,95.0,205.0
47.41374,-124.1031,BLACK KNOB,WA,Grays Harbor,17118246,2022/07/20,11:31:00+00,70.05,1.0,346.0,52.0,100.0,0.0
33.64711,-117.41203,EL CARISO,CA,Riverside,17018417,2022/08/31,13:21:00+00,11.12,3.0,150.0,81.0,37.0,0.0
42.54794,-113.25947,RAFT RIVER,ID,Cassia,16819771,2022/05/18,14:19:59+00,2.62,5.0,214.0,57.0,44.0,242.0
44.92762,-110.99026,QUADRANT,WY,Park,16912695,2022/06/29,06:49:59+00,11.66,3.0,190.0,56.0,52.0,0.0
38.65239,-76.81609,CEDARVILLE,MD,Prince George's,17456157,2022/03/15,13:20:00+00,8.57,1.0,235.0,51.0,60.0,191.0
19.80336,-155.91819,KAUPULEHU LAVA FLOW,HI,Hawaii,17560340,2022/03/21,02:35:59+00,0.4,9.0,346.0,74.0,69.0,238.0
38.435,-96.56056,TALLGRASS PRAIRIE,KS,Chase,17249057,2022/07/25,13:31:00+00,23.53,10.0,49.0,66.0,93.0,44.0
37.30058,-88.62586,SHAWNEE PORTABLE #1,IL,Pope,17551135,2022/05/19,14:55:00+00,28.86,4.0,153.0,82.0,70.0,468.0
46.71853,-114.15731,FIRE EFFECTS PORTABLE #2,MT,Missoula,17501988,2022/08/31,13:27:00+00,4.5,0.0,255.0,62.0,32.0,9.0
37.55879,-113.71745,ENTERPRISE,UT,Washington,17303333,2022/04/11,17:03:59+00,7.89,21.0,214.0,56.0,15.0,729.0
35.00614,-106.31583,OAK FLATS,NM,Bernalillo,16932916,2022/08/31,13:04:00+00,15.0,3.0,60.0,55.0,99.0,2.0
40.58058,-119.78881,BUFFALO CREEK,NV,Washoe,16802610,2022/07/29,15:00:00+00,0.0,8.0,346.0,88.0,12.0,0.0
42.72361,-102.97167,KINGS CANYON,NE,Dawes,16925749,2022/03/15,13:23:00+00,0.16,10.0,200.0,42.0,36.0,4.0
32.74446,-116.67331,JAPATUL FIRE STATION,CA,San Diego,19651334,2022/05/06,01:52:00+00,13.66,4.0,55.0,72.0,34.0,143.0
38.66694,-112.65125,HORSE HOLLOW,UT,Millard,16866862,2022/08/31,12:36:59+00,7.37,1.0,145.0,69.0,26.0,0.0
30.2625,-98.62889,BIRD,TX,Gillespie,17313315,2022/04/25,16:08:00+00,1.27,10.0,24.0,64.0,87.0,112.0
31.69169,-111.44811,SASABE,AZ,Pima,16899095,2022/03/15,13:05:59+00,0.14,5.0,213.0,31.0,45.0,0.0
32.97417,-79.66861,WAMBAW,SC,Charleston,17052971,2022/08/31,12:46:59+00,29.33,0.0,215.0,77.0,95.0,29.0
63.97455,-146.55028,OKLAHOMA,AK,Southeast Fairbanks,17511185,2022/04/28,22:26:00+00,0.02,3.0,343.0,55.0,29.0,661.0
42.69361,-124.03944,BALD KNOB,OR,Coos,16988708,2022/08/31,12:39:00+00,32.25,5.0,176.0,68.0,28.0,0.0
36.55583,-106.10306,JARITA MESA,NM,Rio Arriba,17272619,2022/08/31,13:15:59+00,14.01,0.0,93.0,54.0,81.0,7.0
35.76082,-75.87145,DARE BOMB RANGE (FR2),NC,Dare,17494312,2022/03/15,13:28:59+00,9.1,2.0,264.0,57.0,78.0,317.0
43.42583,-103.75889,RED CANYON,SD,Fall River,16923438,2022/08/11,18:58:00+00,10.22,11.0,203.0,97.0,15.0,904.0
47.9885,-98.97487,DEVILS LAKE,ND,Benson,16780339,2022/08/15,15:52:00+00,14.33,4.0,357.0,69.0,91.0,198.0
45.05486,-105.94842,BRADSHAW CREEK,MT,Powder River,16831791,2022/03/15,13:25:00+00,5.33,5.0,213.0,32.0,68.0,2.0
32.17972,-103.72167,PADUCA,NM,Lea,16836646,2022/08/31,12:40:00+00,0.54,9.0,44.0,66.0,95.0,1.0
34.80637,-119.01363,CHUCHUPATE,CA,Ventura,16986422,2022/04/05,18:23:00+00,8.32,4.0,37.0,62.0,35.0,811.0
45.81044,-104.46308,EKALAKA,MT,Carter,17314620,2022/06/20,22:55:00+00,7.09,8.0,264.0,65.0,68.0,494.0
43.90173,-85.24517,EVART,MI,Osceola,17281829,2022/04/18,00:13:00+00,5.2,6.0,109.0,40.0,42.0,81.0
41.444,-119.11444,DRY CANYON,NV,Humboldt,16849465,2022/08/31,12:38:00+00,1.93,9.0,51.0,65.0,33.0,0.0
36.56924,-115.09051,WAMP SPRINGS,NV,Clark,17323550,2022/06/27,05:29:59+00,0.3,5.0,14.0,70.0,26.0,0.0
39.38686,-116.183,COMBS CANYON,NV,Eureka,16839731,2022/08/31,12:39:00+00,2.94,5.0,72.0,62.0,35.0,0.0
30.35833,-84.61139,BLOXHAM,FL,Leon,17294378,2022/03/19,11:15:00+00,13.9,2.0,170.0,65.0,97.0,0.0
40.58058,-119.78881,BUFFALO CREEK,NV,Washoe,16802607,2022/03/15,12:59:59+00,4.22,13.0,292.0,52.0,32.0,256.0
45.29722,-106.16183,FORT HOWES,MT,Powder River,16831289,2022/06/20,23:27:00+00,6.63,7.0,19.0,54.0,85.0,82.0
35.85417,-113.07194,AZTCA_PORT1,AZ,Coconino,17463341,2022/05/13,16:17:00+00,6.31,9.0,127.0,68.0,13.0,509.0
35.33667,-83.825,CHEOAH,NC,Graham,17054494,2022/06/07,09:04:59+00,30.97,0.0,98.0,63.0,99.0,0.0
48.93855,-116.73451,SADDLE PASS,ID,Boundary,16921395,2022/06/28,06:08:00+00,21.39,1.0,351.0,56.0,57.0,0.0
36.37139,-83.89278,CHUCK SWAN SF,TN,Union,17394211,2022/08/31,13:05:59+00,37.02,0.0,266.0,73.0,77.0,276.0
35.15428,-117.17569,OPAL MOUNTAIN,CA,San Bernardino,16800563,2022/08/31,13:14:00+00,2.38,1.0,191.0,77.0,33.0,0.0
42.4075,-122.19139,SELDOM CREEK,OR,Klamath,17001023,2022/08/31,13:08:00+00,9.93,3.0,249.0,50.0,79.0,0.0
43.55742,-118.40708,BALD MTN,OR,Harney,16851759,2022/07/01,08:42:59+00,6.13,8.0,0.0,58.0,55.0,0.0
37.67533,-119.78792,EL PORTAL,CA,Mariposa,17506341,2022/08/31,12:51:00+00,0.05,0.0,344.0,68.0,35.0,0.0
38.28192,-114.75869,COYOTE WASH,NV,Lincoln,16845616,2022/08/31,12:42:00+00,4.1,5.0,98.0,64.0,35.0,0.0
61.4222,-150.09257,PT MAC,AK,Matanuska-Susitna,17542428,2022/08/31,12:51:00+00,9.06,5.0,87.0,52.0,90.0,0.0
48.12944,-124.30528,ELLIS MT,WA,Clallam,16879163,2022/07/27,18:01:00+00,79.95,2.0,202.0,75.0,61.0,726.0
33.55586,-116.67454,ANZA,CA,Riverside,17096490,2022/03/15,12:54:00+00,7.75,3.0,2.0,38.0,56.0,0.0
40.44192,-120.62694,HIDDEN VALLEY,CA,Lassen,16813397,2022/05/05,01:12:00+00,9.81,5.0,155.0,76.0,19.0,418.0
33.30389,-114.69333,CIBOLA,AZ,La Paz,17461276,2022/08/31,12:49:00+00,1.44,3.0,334.0,77.0,56.0,0.0
35.27619,-112.06325,GREENBASE,AZ,Coconino,16936750,2022/03/30,12:17:00+00,1.59,6.0,332.0,35.0,92.0,0.0
39.69439,-106.97339,GYPSUM,CO,Eagle,16808746,2022/07/16,17:13:00+00,6.16,4.0,348.0,75.0,56.0,781.0
36.99086,-121.80488,CORRALITOS,CA,Santa Cruz,17092139,2022/03/15,13:27:00+00,20.35,0.0,243.0,51.0,75.0,0.0
39.86136,-112.24356,MUD SPRING,UT,Juab,16866612,2022/08/31,12:36:59+00,3.77,4.0,270.0,62.0,35.0,0.0
48.61528,-100.72917,J. CLARK SALYER,ND,McHenry,17262118,2022/08/31,12:46:00+00,10.41,0.0,23.0,54.0,94.0,17.0
44.465,-112.95194,HARKNESS,MT,Beaverhead,17547545,2022/08/09,20:05:00+00,0.0,10.0,62.0,77.0,17.0,664.0
40.72806,-115.24556,RUBY VALLEY,NV,Elko,17412905,2022/08/22,16:04:00+00,8.34,2.0,124.0,76.0,37.0,468.0
43.11286,-78.40431,IROQUOIS,NY,Genesee,17172776,2022/03/15,13:26:00+00,4.34,3.0,66.0,37.0,89.0,90.0
42.95333,-121.58194,KLAMATH MARSH,OR,Klamath,17345316,2022/07/01,09:32:00+00,9.45,5.0,23.0,40.0,76.0,0.0
40.25683,-124.26603,COOSKIE MOUNTAIN,CA,Humboldt,16804931,2022/03/15,13:09:00+00,45.91,6.0,239.0,46.0,100.0,0.0
48.38333,-114.0575,HUNGRY HORSE,MT,Flathead,17023540,2022/05/23,19:12:00+00,10.88,6.0,267.0,62.0,32.0,874.0
35.5025,-87.45806,MERIWETHER LEWIS,TN,Lewis,17083185,2022/06/29,07:21:59+00,34.73,0.0,269.0,61.0,80.0,0.0
37.93417,-122.11778,BRIONES,CA,Contra Costa,17063453,2022/07/07,14:28:00+00,22.65,12.0,342.0,53.0,98.0,166.0
34.35843,-106.68948,SEVILLETA,NM,Socorro,17455385,2022/04/04,17:12:00+00,19.07,10.0,68.0,60.0,23.0,759.0
38.11586,-111.32077,LARB HOLLOW,UT,Garfield,17413153,2022/05/04,00:04:00+00,3.73,7.0,269.0,38.0,30.0,433.0
39.58442,-117.94392,CHERRY VALLEY,NV,Pershing,16841006,2022/08/31,12:48:00+00,2.59,2.0,177.0,67.0,26.0,0.0
31.10972,-83.42694,ADEL,GA,Cook,17327903,2021/12/14,03:04:00+00,58.21,1.0,326.0,56.0,100.0,0.0
34.90167,-118.90333,GRAPEVINE PEAK,CA,Kern,17519634,2022/08/22,16:14:00+00,0.07,6.0,359.0,76.0,27.0,468.0
35.88194,-118.07556,BEAR PEAK,CA,Tulare,16797737,2022/03/15,13:10:00+00,0.06,29.0,297.0,40.0,52.0,0.0
40.00986,-82.10325,BLUE ROCK,OH,Muskingum,17366816,2022/03/15,12:49:59+00,10.16,2.0,220.0,45.0,51.0,40.0
34.16403,-112.73486,STANTON,AZ,Yavapai,16791343,2022/08/31,13:01:00+00,6.11,6.0,7.0,79.0,38.0,0.0
34.80758,-114.53456,HAVASU,AZ,Mohave,16795958,2022/08/31,12:53:00+00,2.41,1.0,200.0,80.0,43.0,0.0
69.37,-152.13611,UMIAT AIRFIELD,AK,North Slope,17475618,2022/05/02,23:24:00+00,0.41,4.0,278.0,25.0,55.0,508.0
34.64083,-118.41417,GRASS MOUNTAIN,CA,Los Angeles,17416740,2022/03/15,12:59:59+00,8.45,5.0,290.0,56.0,18.0,0.0
64.08144,-155.57225,POORMAN,AK,Yukon-Koyukuk,16786463,2022/05/23,19:20:00+00,0.02,10.0,67.0,60.0,25.0,566.0
44.90433,-115.73858,TEA POT,ID,Valley,16946491,2022/07/07,13:39:00+00,8.88,5.0,83.0,56.0,72.0,105.0
39.30944,-111.32278,JOES VALLEY,UT,Sanpete,17141544,2022/08/31,13:15:59+00,4.94,1.0,278.0,63.0,26.0,5.0
44.02883,-123.17369,WILLOW CREEK,OR,Lane,16854364,2022/08/31,12:54:00+00,36.78,5.0,195.0,60.0,83.0,0.0
47.39194,-92.83472,HIBBING,MN,St. Louis,17131052,2022/03/15,13:07:00+00,0.12,5.0,196.0,27.0,57.0,27.0
41.05408,-120.33753,BLUE DOOR,CA,Lassen,16803123,2022/05/05,00:59:59+00,9.46,8.0,143.0,70.0,17.0,458.0
46.48369,-104.06689,CANNONBALL CREEK,MT,Fallon,16833333,2022/03/15,12:40:00+00,6.42,5.0,230.0,35.0,68.0,0.0
45.95139,-94.34444,LITTLE FALLS,MN,Morrison,17134379,2022/03/15,13:08:00+00,0.54,2.0,184.0,19.0,83.0,12.0
35.68694,-105.86028,SANTA FE WATERSHED,NM,Santa Fe,16967467,2022/03/10,22:53:00+00,1.47,5.0,296.0,37.0,56.0,331.0
43.04972,-111.37944,DALE BITNER,ID,Bonneville,17344288,2022/08/31,12:45:00+00,2.35,7.0,125.0,45.0,77.0,0.0
40.75758,-107.8535,GREAT DIVIDE,CO,Moffat,16807462,2022/03/15,12:46:00+00,0.28,20.0,150.0,25.0,63.0,0.0
45.35594,-113.89503,KRILEY CREEK,ID,Lemhi,16823095,2022/08/31,12:52:00+00,7.27,1.0,347.0,62.0,28.0,0.0
45.27056,-110.54333,WICKED CREEK,MT,Park,17239584,2022/07/22,22:07:00+00,8.06,11.0,202.0,78.0,16.0,667.0
31.76111,-109.34861,RUCKER,AZ,Cochise,17156916,2022/08/31,12:57:00+00,16.9,6.0,90.0,65.0,62.0,1.0
40.43814,-114.81017,SPRUCE MOUNTAIN,NV,Elko,16842795,2022/04/20,10:42:00+00,2.6,9.0,300.0,31.0,60.0,0.0
47.61992,-119.89939,DOUGLAS,WA,Douglas,16872504,2022/08/31,12:49:00+00,4.37,8.0,329.0,62.0,49.0,0.0
37.79306,-106.77861,BLUE PARK,CO,Mineral,16927016,2022/03/15,12:58:00+00,0.95,3.0,70.0,11.0,61.0,0.0
39.83328,-116.49542,COILS CREEK,NV,Eureka,16838200,2022/05/02,22:39:00+00,0.7,18.0,327.0,52.0,43.0,604.0
39.30694,-105.54278,LOST PARK,CO,Park,17551897,2022/08/31,13:09:00+00,16.93,1.0,31.0,50.0,66.0,9.0
39.44583,-80.86889,CONAWAY LAKE,WV,Tyler,17466649,2022/03/15,13:17:00+00,11.33,6.0,184.0,50.0,42.0,138.0
63.87173,-145.85203,BOLIO,AK,Southeast Fairbanks,17482010,2022/08/31,13:25:00+00,4.87,18.0,178.0,54.0,54.0,0.0
38.59084,-120.93362,BEN BOLT,CA,El Dorado,17090347,2022/03/21,02:58:59+00,19.61,1.0,23.0,59.0,28.0,3.0
43.15677,-71.37684,BEAR BROOK,NH,Merrimack,17562401,2022/03/15,12:58:00+00,6.81,0.0,347.0,34.0,81.0,93.0
39.54525,-109.90813,WILDHORSE,UT,Uintah,17038905,2022/02/27,21:49:00+00,1.02,8.0,204.0,42.0,25.0,797.0
47.66372,-103.31919,WATFORD CITY,ND,McKenzie,17116472,2022/05/16,11:48:59+00,3.95,12.0,148.0,52.0,49.0,11.0
34.80847,-83.12761,ANDREW PICKENS,SC,Oconee,17052711,2022/03/15,13:05:59+00,13.77,2.0,323.0,49.0,51.0,44.0
40.78169,-120.78437,GRASSHOPPER,CA,Lassen,17093934,2022/08/31,12:48:00+00,10.15,0.0,143.0,57.0,46.0,0.0
33.74089,-95.92236,CADDO,TX,Fannin,17049380,2022/08/31,13:02:59+00,23.22,2.0,168.0,74.0,100.0,43.0
40.53811,-76.7829,PA PORTABLE #1,PA,Dauphin,19738120,2022/04/07,19:59:00+00,22.43,1.0,4.0,47.0,92.0,105.0
45.16583,-111.35944,YELLOW MULE,MT,Gallatin,17081126,2022/08/31,13:04:00+00,11.07,4.0,220.0,59.0,30.0,4.0
32.82467,-105.18258,DUNKEN,NM,Chaves,16836917,2022/03/15,12:36:00+00,0.27,9.0,243.0,33.0,39.0,0.0
30.18278,-84.94028,WILMA,FL,Liberty,17047338,2022/03/15,12:48:00+00,14.03,3.0,156.0,58.0,93.0,12.0
38.11549,-108.70991,DRY CREEK BASIN,CO,San Miguel,19860999,2022/07/28,18:13:00+00,4.26,7.0,50.0,74.0,54.0,548.0
42.72194,-120.75278,SUMMER LAKE,OR,Lake,17370917,2022/08/31,12:39:00+00,6.01,5.0,169.0,63.0,32.0,0.0
30.45111,-89.45444,HANCOCK,MS,Hancock,17365279,2022/03/15,13:09:00+00,10.35,1.0,326.0,60.0,99.0,2.0
36.38833,-113.15806,NIXON FLATS,AZ,Mohave,16790574,2022/05/02,22:50:00+00,1.75,8.0,212.0,68.0,13.0,747.0
38.96853,-108.94431,LITTLE DOLORES,CO,Mesa,17067307,2022/05/02,22:50:00+00,3.43,6.0,231.0,65.0,28.0,698.0
46.457,-85.62772,SPINCICH LAKE,MI,Luce,17368872,2022/03/15,13:02:00+00,0.0,3.0,230.0,13.0,88.0,47.0
47.02819,-105.80472,BIG SHEEP MOUNTAIN,MT,Prairie,16832311,2022/08/31,13:08:00+00,8.2,5.0,146.0,69.0,39.0,20.0
48.61111,-118.27778,LANE CREEK,WA,Ferry,16968997,2022/07/20,11:58:00+00,12.48,2.0,22.0,61.0,53.0,0.0
33.69222,-93.1625,BLUFF CITY,AR,Nevada,17367832,2022/03/15,13:10:00+00,8.6,1.0,81.0,51.0,100.0,20.0
34.77614,-113.3375,GOODWIN MESA,AZ,Yavapai,16791605,2022/03/15,13:21:00+00,0.69,9.0,303.0,44.0,35.0,0.0
38.03447,-110.82508,HENRY MTN,UT,Garfield,17546275,2022/04/01,13:57:00+00,0.98,5.0,352.0,31.0,45.0,13.0
41.64353,-123.44407,DUTCH-INDY,CA,Siskiyou,17587748,2022/03/15,12:57:00+00,26.62,2.0,156.0,46.0,100.0,0.0
32.88203,-109.30928,GUTHRIE,AZ,Greenlee,16795177,2022/08/31,13:04:00+00,8.57,10.0,97.0,62.0,69.0,2.0
46.89222,-123.41694,MINOT PEAK,WA,Grays Harbor,16877878,2022/03/15,12:59:59+00,50.28,1.0,75.0,40.0,99.0,0.0
38.90417,-120.70522,BALD MTN LOC,CA,El Dorado,16952125,2022/05/05,00:36:00+00,0.11,3.0,238.0,72.0,25.0,569.0
47.02819,-105.80472,BIG SHEEP MOUNTAIN,MT,Prairie,16832309,2022/05/02,23:08:00+00,0.73,20.0,146.0,60.0,39.0,511.0
43.72008,-123.62958,DEVILS GRAVEYARD,OR,Douglas,17476131,2022/03/15,13:24:00+00,12.51,4.0,169.0,45.0,96.0,0.0
60.49355,-149.75678,BROADVIEW,AK,Kenai Peninsula,17003049,2022/06/10,11:55:00+00,0.18,1.0,280.0,50.0,87.0,0.0
37.865,-122.22083,OAKLAND NORTH,CA,Alameda,17063962,2022/08/31,12:33:59+00,0.17,6.0,217.0,54.0,100.0,0.0
25.39028,-80.68028,CACHE,FL,Miami-Dade,17222709,2022/03/15,13:24:00+00,5.23,8.0,69.0,74.0,93.0,125.0
37.78833,-121.73472,LOS VAQUEROS,CA,Contra Costa,17425938,2022/08/31,12:45:00+00,88.4,18.0,150.0,54.0,95.0,0.0
37.97444,-92.69,CAMDENTON,MO,Camden,17070627,2022/05/25,00:13:00+00,16.82,0.0,121.0,62.0,100.0,30.0
38.83168,-121.0092,PILOT HILL,CA,El Dorado,17089322,2022/03/21,02:57:00+00,11.84,0.0,191.0,55.0,33.0,5.0
42.27611,-110.80611,KELLY,WY,Lincoln,17296688,2022/07/25,16:01:00+00,13.67,4.0,260.0,65.0,38.0,580.0
48.52806,-98.62361,HAMPDEN,ND,Ramsey,17358629,2022/08/26,17:58:59+00,13.94,6.0,161.0,76.0,51.0,743.0
43.10054,-118.49992,RIDDLE MTN.,OR,Harney,16852021,2022/06/29,06:43:00+00,5.82,10.0,298.0,57.0,23.0,0.0
44.28428,-122.84942,BRUSH CREEK,OR,Lane,16854849,2022/08/31,13:15:00+00,59.49,5.0,190.0,63.0,79.0,0.0
34.69194,-93.22,JESSIEVILLE,AR,Garland,17124911,2022/08/31,13:02:59+00,38.73,0.0,165.0,73.0,96.0,62.0
33.77294,-106.09858,CHUPADERA,NM,Socorro,16835630,2022/05/02,22:40:00+00,0.87,13.0,262.0,81.0,8.0,723.0
37.15067,-113.954,BADGER SPRING,UT,Washington,16863537,2022/03/24,05:51:59+00,4.43,7.0,90.0,55.0,17.0,0.0
33.87715,-117.30407,CLARK,CA,Riverside,17095467,2022/08/31,12:54:00+00,4.63,1.0,60.0,74.0,37.0,0.0
47.86667,-115.625,CABINET (TROUT CREEK),MT,Sanders,17024817,2022/05/25,21:16:00+00,12.87,2.0,137.0,54.0,80.0,186.0
45.635,-118.44833,BIA UMATILLA QD,OR,Umatilla,19717639,2021/12/23,17:16:00+00,1.33,8.0,98.0,38.0,88.0,40.0
55.39583,-116.10806,3 MILE (TEST),ID,Clark,17192240,2022/03/08,09:13:00+00,0.64,2.0,352.0,17.0,93.0,7.0
46.75128,-109.02317,LITTLE SNOWY,MT,Fergus,16829499,2022/05/02,22:41:00+00,2.8,6.0,153.0,51.0,57.0,673.0
39.66796,-123.32129,RODEO VALLEY,CA,Mendocino,17102130,2022/08/31,13:28:59+00,34.99,1.0,143.0,60.0,31.0,0.0
39.35628,-77.88031,KEARNEYSVILLE,WV,Jefferson,17519896,2022/03/15,13:14:00+00,3.91,4.0,189.0,50.0,53.0,200.0
38.30733,-113.38619,BRIMSTONE RESERVOIR,UT,Beaver,16864306,2022/08/31,13:26:00+00,4.93,7.0,126.0,67.0,34.0,5.0
34.27643,-92.39942,SHERIDAN,AR,Grant,17368092,2022/03/15,13:10:00+00,10.15,2.0,10.0,50.0,99.0,3.0
35.52081,-76.93183,BEAUFORT,NC,Beaufort,17377825,2022/03/15,13:12:59+00,39.02,0.0,121.0,45.0,95.0,78.0
41.45356,-117.62192,MOREY CREEK,NV,Humboldt,16849979,2022/08/31,12:38:00+00,4.62,13.0,316.0,72.0,20.0,0.0
44.29694,-119.03694,FALL MOUNTAIN,OR,Grant,16975912,2022/05/02,23:29:00+00,5.43,7.0,308.0,36.0,89.0,427.0
39.83328,-116.49542,COILS CREEK,NV,Eureka,16838201,2022/08/31,12:39:00+00,2.55,4.0,226.0,57.0,38.0,0.0
37.87712,-108.62883,SAN JUAN PORTABLE,CO,San Miguel,17414000,2022/05/02,22:43:00+00,1.69,9.0,226.0,65.0,20.0,754.0
42.36697,-112.70631,BULL CANYON,ID,Power,16818996,2022/05/02,23:22:00+00,4.45,3.0,191.0,53.0,50.0,552.0
44.29694,-119.03694,FALL MOUNTAIN,OR,Grant,16975914,2022/05/04,00:29:00+00,5.47,6.0,311.0,48.0,69.0,516.0
33.04994,-113.13867,OATMAN,AZ,Maricopa,17543196,2022/03/15,12:53:00+00,0.13,12.0,37.0,64.0,16.0,0.0
45.88139,-120.63472,GOLDENDALE EAST,WA,Klickitat,17346602,2022/07/05,06:09:00+00,14.91,6.0,351.0,54.0,60.0,0.0
45.38953,-87.96541,WAUSAUKEE,WI,Marinette,17451301,2022/08/31,13:05:59+00,21.22,5.0,299.0,67.0,68.0,166.0
33.22222,-116.49746,RANCHITA,CA,San Diego,17101867,2022/08/31,13:08:00+00,7.58,3.0,10.0,78.0,29.0,0.0
40.37683,-108.52197,CALICO,CO,Moffat,17520424,2022/08/31,12:54:00+00,5.38,2.0,148.0,62.0,27.0,1.0
21.47747,-157.93694,OAHU FOREST NWR,HI,Honolulu,17505567,2022/07/07,13:37:00+00,29.95,0.0,95.0,68.0,85.0,0.0
40.897,-106.431,INDEPENDENCE MOUNTAIN,CO,Jackson,17565467,2022/03/15,12:42:00+00,1.37,2.0,247.0,16.0,83.0,0.0
40.27028,-105.8375,HARBISON MEADOW,CO,Grand,17041714,2022/03/15,12:57:00+00,1.76,1.0,8.0,-1.0,82.0,0.0
41.62228,-120.16144,SURPRISE VALLEY,CA,Modoc,16798823,2022/03/15,12:40:00+00,4.95,3.0,243.0,37.0,94.0,0.0
35.70806,-99.90472,CHEYENNE,OK,Roger Mills,17464864,2022/03/15,12:59:00+00,0.28,14.0,207.0,33.0,79.0,1.0
34.18111,-110.78917,RED LAKE,AZ,Gila,17422370,2022/03/15,12:59:59+00,2.47,0.0,29.0,24.0,76.0,0.0
41.91072,-119.93933,BARREL SPRINGS,NV,Washoe,16803891,2022/08/31,12:59:59+00,0.01,4.0,138.0,59.0,41.0,0.0
37.37842,-119.62953,BATTERSON,CA,Madera,17193548,2022/03/15,12:48:00+00,18.07,3.0,343.0,51.0,53.0,0.0
37.94778,-104.86917,COLORADO CITY,CO,Pueblo,17374751,2022/08/31,12:57:00+00,13.29,2.0,268.0,59.0,57.0,11.0
38.35783,-75.4309,POWELLVILLE,MD,Wicomico,17456416,2022/03/15,12:49:00+00,9.29,0.0,225.0,37.0,100.0,36.0
40.59311,-114.20494,SPRING GULCH,NV,Elko,16842024,2022/04/20,10:41:00+00,2.19,8.0,304.0,34.0,68.0,0.0
40.50147,-119.12161,BLUEWING MOUNTAIN,NV,Humboldt,16849722,2022/08/31,12:38:00+00,1.07,2.0,33.0,61.0,30.0,0.0
34.13624,-118.606,TOPANGA,CA,Los Angeles,17570080,2022/03/15,12:58:00+00,11.57,4.0,121.0,58.0,55.0,0.0
30.73694,-94.4325,WOODVILLE,TX,Tyler,17311267,2022/08/31,13:04:00+00,28.92,3.0,23.0,76.0,100.0,66.0
21.38491,-158.10422,PALEHUA,HI,Honolulu,17560856,2022/03/15,12:36:00+00,6.27,10.0,44.0,61.0,90.0,0.0
46.53444,-110.88528,WHITE SULPHUR SPRING,MT,Meagher,17034021,2022/08/31,12:58:00+00,8.74,4.0,72.0,51.0,64.0,2.0
46.71853,-114.15731,FIRE EFFECTS PORTABLE #2,MT,Missoula,17501986,2022/03/15,13:27:00+00,96.3,5.0,237.0,36.0,97.0,0.0
34.19512,-118.09362,HENNINGER FLATS,CA,Los Angeles,17570344,2022/03/15,12:58:00+00,13.11,2.0,5.0,63.0,23.0,0.0
34.61217,-77.48725,SANDY RUN,NC,Onslow,17476375,2022/03/15,13:20:00+00,7.09,1.0,126.0,57.0,80.0,243.0
43.8778,-103.44946,MT. RUSHMORE,SD,Pennington,17136934,2022/03/21,03:13:00+00,0.9,3.21,303.13,46.0,47.0,0.0
42.12061,-122.56394,BUCKHORN SPRINGS,OR,Jackson,17147949,2022/05/05,00:52:00+00,6.57,6.0,304.0,79.0,26.0,511.0
31.89444,-104.79778,PINERY,TX,Culberson,17136168,2022/08/31,12:53:00+00,10.62,8.0,42.0,61.0,100.0,1.0
42.01247,-122.77492,KNF91 PORTABLE,CA,Siskiyou,16955964,2022/03/14,10:49:00+00,0.0,3.0,119.0,37.0,72.0,0.0
36.38549,-79.29189,CASWELL GAME LANDS,NC,Caswell,17356323,2022/08/31,13:17:00+00,14.78,3.0,303.0,74.0,85.0,236.0
37.25006,-114.70672,KANE SPRINGS,NV,Lincoln,16847922,2022/03/29,05:42:00+00,0.22,11.0,206.0,46.0,74.0,0.0
32.92733,-103.85683,CAPROCK,NM,Eddy,16837422,2022/08/31,12:41:00+00,5.69,9.0,62.0,65.0,100.0,1.0
39.46003,-108.88031,DEMAREE,CO,Garfield,17067046,2022/05/02,22:50:00+00,2.91,5.0,191.0,60.0,29.0,713.0
34.12486,-118.41257,BEVERLY HILLS,CA,Los Angeles,17117239,2022/08/31,12:55:00+00,13.19,2.0,229.0,79.0,28.0,0.0
47.2575,-120.67556,SWAUK,WA,Kittitas,16997182,2022/08/31,13:08:00+00,11.25,2.0,39.0,73.0,29.0,0.0
39.927,-106.54517,DRY GULCH,CO,Grand,17167151,2022/03/15,12:38:00+00,2.18,0.0,328.0,17.0,81.0,0.0
47.53639,-94.05444,CUTFOOT,MN,Itasca,17180708,2022/03/15,13:04:00+00,1.22,3.0,199.0,28.0,76.0,7.0
38.84558,-107.73853,JAY,CO,Delta,16809259,2022/03/16,22:53:00+00,1.52,15.0,249.0,48.0,47.0,121.0
41.8019,-122.1097,JUANITA LAKE,CA,Siskiyou,16954670,2022/05/18,14:18:00+00,14.42,0.0,134.0,46.0,53.0,42.0
44.06667,-68.64167,ISLE AU HAUT,ME,Knox,16910377,2022/08/31,12:38:00+00,19.27,7.0,196.0,69.0,100.0,133.0
42.30806,-114.31806,TRAIL GULCH,ID,Twin Falls,16948273,2022/06/16,17:32:00+00,16.57,26.0,157.0,76.0,16.0,856.0
31.53035,-88.89237,WAUSAU,MS,Wayne,17046064,2022/04/13,01:36:00+00,20.42,0.0,174.0,71.0,80.0,0.0
41.67576,-122.5999,BRAZIE RANCH,CA,Siskiyou,17097256,2022/08/31,12:55:00+00,9.18,1.0,137.0,68.0,39.0,0.0
35.07653,-84.12703,TUSQUITEE,NC,Cherokee,17056029,2022/06/07,08:37:00+00,38.64,0.0,120.0,67.0,80.0,0.0
36.05889,-105.76944,TRUCHAS,NM,Rio Arriba,17080358,2022/03/15,13:11:00+00,2.29,6.0,100.0,18.0,68.0,0.0
39.03373,-107.9769,GRAND MESA,CO,Delta,19814915,2022/08/31,13:12:00+00,20.18,0.0,321.0,49.0,43.0,14.0
33.49969,-103.91819,ROSWELL #1 PORTABLE,NM,Chaves,17362244,2022/08/31,12:40:00+00,9.55,4.0,54.0,66.0,94.0,1.0
40.75758,-107.8535,GREAT DIVIDE,CO,Moffat,16807464,2022/08/31,12:46:00+00,3.43,3.0,11.0,66.0,20.0,0.0
40.78642,-122.80449,TRINITY CAMP,CA,Trinity,17104431,2022/08/31,13:28:00+00,21.08,3.0,319.0,66.0,50.0,0.0
44.78611,-107.53583,BURGESS,WY,Sheridan,16922929,2022/05/12,08:05:00+00,1.58,6.0,33.0,32.0,100.0,0.0
33.69222,-93.1625,BLUFF CITY,AR,Nevada,17367833,2022/06/24,22:10:00+00,29.05,1.0,74.0,96.0,54.0,296.0
45.375,-84.625,INDIAN RIVER,MI,Cheboygan,17281313,2022/06/06,14:13:00+00,6.09,4.0,95.0,56.0,97.0,57.0
34.7775,-88.16528,TISHOMINGO,MS,Tishomingo,17402652,2022/08/31,13:14:00+00,34.37,3.0,300.0,77.0,85.0,227.0
43.55756,-103.48346,WICA_ELK MOUNTAIN,SD,Custer,17122595,2022/03/21,03:13:00+00,0.9,4.0,276.0,54.0,27.0,0.0
40.74216,-123.24918,BIG BAR,CA,Trinity,16964410,2022/07/25,23:21:00+00,24.5,3.0,248.0,112.0,8.0,823.0
35.88667,-118.64834,UHL,CA,Tulare,17037105,2022/04/03,15:59:59+00,14.55,1.0,346.0,57.0,62.0,189.0
32.6675,-116.69944,BARRETT,CA,San Diego,17568017,2022/08/31,12:49:59+00,14.05,4.0,322.0,77.0,41.0,0.0
39.91517,-108.88767,DRAGON ROAD,CO,Rio Blanco,16806188,2022/08/31,13:18:59+00,5.08,1.0,170.0,65.0,26.0,22.0
47.24414,-108.35892,DRY BLOOD CREEK,MT,Petroleum,17114414,2022/08/31,12:41:00+00,10.14,4.0,235.0,67.0,39.0,2.0
31.445,-110.28,CARR,AZ,Cochise,16934717,2022/08/31,13:18:59+00,15.16,1.0,219.0,63.0,67.0,3.0
42.19889,-120.24694,SUMMIT,OR,Lake,16972592,2022/08/22,16:04:00+00,5.2,3.0,349.0,68.0,36.0,376.0
41.83836,-122.85015,OAK KNOLL,CA,Siskiyou,16954438,2022/04/15,03:22:00+00,10.81,3.0,295.0,44.0,44.0,9.0
35.87111,-117.91833,FIVE MILE,CA,Inyo,17146671,2022/05/05,01:26:00+00,0.04,9.0,177.0,76.0,12.0,270.0
38.03425,-113.52175,JENSEN SPRING,UT,Iron,16864052,2022/03/15,12:46:00+00,3.48,7.0,7.0,30.0,59.0,0.0
32.17861,-104.44056,BATDRAW,NM,Eddy,17106734,2022/08/31,12:53:00+00,8.0,12.0,11.0,63.0,99.0,0.0
33.37389,-94.04556,TEXARKANA,TX,Bowie,17322016,2022/08/31,13:05:00+00,32.62,0.0,197.0,73.0,0.0,64.0
30.25139,-82.42083,OLUSTEE,FL,Baker,17046313,2022/03/15,13:05:00+00,8.54,1.0,46.0,57.0,98.0,12.0
33.81528,-116.64194,MT. SAN JACINTO,CA,Riverside,17535508,2022/07/07,13:53:00+00,0.0,7.0,195.0,55.0,39.0,30.0
37.01514,-119.5678,HURLEY,CA,Fresno,17094957,2022/03/21,03:27:59+00,11.07,1.0,59.0,43.0,93.0,0.0
32.92378,-80.63067,WALTERBORO,SC,Colleton,17362710,2022/08/31,13:07:00+00,31.04,2.0,328.0,79.0,92.0,164.0
41.83095,-123.8765,CAMP SIX,CA,Del Norte,17410094,2022/08/10,14:58:59+00,8.02,3.0,185.0,54.0,76.0,168.0
31.03306,-92.98194,DOVE FIELD,LA,Vernon,17364506,2022/08/31,12:33:59+00,31.85,1.0,354.0,73.0,98.0,8.0
44.15722,-118.47139,CRANE PRAIRIE,OR,Grant,16975150,2022/05/11,07:28:59+00,7.35,0.0,2.0,24.0,90.0,0.0
34.76056,-76.89556,CROATAN,NC,Carteret,17055264,2022/06/07,08:48:59+00,15.49,3.0,88.0,65.0,90.0,0.0
39.82528,-123.0825,EEL RIVER (MNF),CA,Mendocino,16959530,2022/05/03,23:45:59+00,25.75,2.0,293.0,81.0,25.0,398.0
37.83389,-122.06694,LAS TRAMPAS,CA,Contra Costa,17063196,2022/07/21,20:28:00+00,26.25,4.0,46.0,85.0,28.0,978.0
39.30828,-122.9397,MNF02 PORTABLE,CA,Lake,17015869,2022/03/15,12:54:00+00,3.91,3.0,311.0,45.0,100.0,0.0
30.98556,-101.15778,BARNHART,TX,Crockett,17311779,2022/03/15,13:08:00+00,0.29,7.0,337.0,36.0,55.0,3.0
41.62228,-120.16144,SURPRISE VALLEY,CA,Modoc,16798824,2022/05/05,00:40:00+00,6.4,7.0,173.0,77.0,16.0,498.0
43.66917,-123.94361,CHARLOTTE RIDGE,OR,Douglas,17420577,2022/06/06,15:08:00+00,45.35,2.0,296.0,49.0,100.0,47.0
34.85181,-108.17456,MALPAIS LAVA FLOW,NM,Valencia,16834612,2022/06/01,04:26:00+00,0.61,8.0,279.0,59.0,17.0,0.0
44.38556,-115.5505,BEARSKIN CREEK,ID,Valley,16941627,2022/08/31,13:05:59+00,15.1,11.0,79.0,60.0,30.0,1.0
45.10556,-90.69,DIAMOND LAKE,WI,Taylor,17452832,2022/03/15,13:15:00+00,0.86,0.0,190.0,21.0,99.0,32.0
37.32927,-121.29538,DIABLO GRANDE,CA,Stanislaus,17103909,2022/08/31,13:01:00+00,11.29,6.0,98.0,75.0,36.0,0.0
35.68489,-117.88967,INDIAN WELLS CANYON,CA,Kern,17147184,2022/08/31,13:27:00+00,3.93,1.0,347.0,85.0,18.0,1.0
19.3175,-155.29222,PALI2,HI,Hawaii,16909107,2022/03/15,13:02:00+00,7.58,5.0,62.0,63.0,86.0,0.0
44.52639,-118.32306,YELLOWPINE,OR,Baker,17183018,2022/06/29,06:59:59+00,10.93,1.0,234.0,54.0,59.0,0.0
44.94081,-122.40081,HORSE CREEK,OR,Clackamas,16861008,2022/05/05,01:28:00+00,32.73,1.0,275.0,58.0,70.0,322.0
38.7025,-86.72724,IIC NORTH PORTABLE,IN,Martin,17424425,2022/03/15,13:10:00+00,12.59,0.0,235.0,50.0,46.0,10.0
42.10375,-123.68508,ILLINOIS VALLEY AIRPORT,OR,Josephine,16989488,2022/05/05,00:52:00+00,13.72,9.0,237.0,75.0,27.0,442.0
19.91657,-155.42088,PUU MALI,HI,Hawaii,17518104,2022/03/21,03:01:00+00,2.81,6.0,294.0,56.0,93.0,148.0
38.63611,-80.61972,FLATWOODS,WV,Braxton,17467928,2022/03/15,13:17:00+00,12.37,4.0,202.0,54.0,34.0,125.0
37.02142,-116.609,BUDDY ADAMS,NV,Nye,17525800,2022/08/31,12:52:00+00,3.45,5.0,99.0,77.0,26.0,0.0
45.35594,-113.89503,KRILEY CREEK,ID,Lemhi,16823094,2022/05/02,22:52:00+00,3.29,11.0,61.0,53.0,48.0,211.0
38.54053,-105.20397,FOUR MILE,CO,Fremont,17567775,2022/08/31,12:39:00+00,12.51,4.0,15.0,64.0,55.0,2.0
30.32167,-89.93528,BIG BRANCH NWR,LA,St. Tammany,17359404,2022/03/15,12:48:00+00,8.8,0.0,297.0,60.0,96.0,2.0
32.92549,-118.54198,EEL POINT,CA,San Diego,17557775,2022/04/28,18:43:00+00,1.22,0.0,0.0,-40.0,100.0,521.0
41.51711,-115.39092,STAG MOUNTAIN,NV,Elko,17109289,2022/04/18,23:26:00+00,2.56,26.0,233.0,62.0,11.0,603.0
34.72832,-118.39406,POPPY PARK,CA,Los Angeles,17137977,2022/08/31,12:57:00+00,7.36,0.0,288.0,70.0,35.0,0.0
36.72714,-120.76587,PANOCHE ROAD,CA,Fresno,17100843,2022/03/15,13:27:00+00,2.74,4.0,317.0,56.0,47.0,0.0
33.77972,-82.81361,WASHINGTON,GA,Wilkes,17325595,2022/08/31,13:02:59+00,34.65,2.0,35.0,77.0,84.0,202.0
38.13583,-86.64111,TIPSAW LAKE,IN,Perry,17077288,2022/08/12,18:12:00+00,37.51,4.0,19.0,80.0,48.0,781.0
37.83418,-120.50311,GREEN SPRING,CA,Tuolumne,17094183,2022/03/21,03:04:00+00,13.15,4.0,323.0,58.0,25.0,2.0
43.565,-116.20833,CARLSBAD PORTABLE,ID,Ada,17399876,2022/06/16,13:41:00+00,0.0,3.0,70.0,57.0,43.0,7.0
37.01278,-119.25056,SNF02 PORTABLE,CA,Fresno,19666445,2022/03/16,10:52:00+00,12.14,0.0,42.0,46.0,78.0,0.0
41.6525,-118.04417,DOUBLE H,NV,Humboldt,16814658,2022/05/02,22:47:00+00,1.15,25.0,313.0,41.0,48.0,769.0
64.71828,-146.50183,STUART CREEK,AK,Fairbanks North Star,17506831,2022/04/28,19:26:00+00,15.06,0.0,33.0,50.0,34.0,497.0
28.64083,-80.73083,MERRITT ISLAND,FL,Brevard,17315615,2022/03/15,13:15:00+00,6.45,7.0,89.0,72.0,72.0,105.0
35.08611,-83.2175,HIGHLANDS,NC,Macon,17066779,2022/06/07,09:06:00+00,2.62,2.0,228.0,59.0,98.0,0.0
63.85025,-145.70513,DONNELLY,AK,Southeast Fairbanks,17482263,2022/04/19,10:25:00+00,0.02,8.0,74.0,27.0,40.0,0.0
39.01883,-122.41169,COUNTY LINE,CA,Lake,16804418,2022/05/05,00:36:59+00,13.8,10.0,269.0,85.0,17.0,570.0
63.8375,-144.35028,GEORGE CREEK RAWS,AK,Southeast Fairbanks,17196835,2022/08/31,12:52:00+00,5.81,2.0,102.0,42.0,84.0,0.0
30.60056,-103.88667,FORT DAVIS,TX,Jeff Davis,17427484,2022/03/15,13:04:00+00,0.16,0.0,215.0,28.0,59.0,0.0
40.45953,-115.84953,CRANE SPRINGS,NV,Elko,17109034,2022/04/19,10:26:00+00,2.56,6.0,259.0,45.0,32.0,0.0
45.72083,-122.03722,THREE CORNER ROCK,WA,Skamania,16880182,2022/03/15,12:59:59+00,44.44,28.0,227.0,36.0,100.0,0.0
45.14962,-84.18571,ATLANTA,MI,Montmorency,17281567,2022/04/23,14:09:00+00,2.14,11.0,122.0,43.0,90.0,157.0
35.15428,-117.17569,OPAL MOUNTAIN,CA,San Bernardino,16800561,2022/03/15,13:14:00+00,1.81,2.0,219.0,50.0,25.0,0.0
46.16025,-100.90133,TATANKA PRAIRIE,ND,Sioux,17543712,2022/08/31,13:25:00+00,10.69,5.0,294.0,64.0,51.0,111.0
31.50222,-92.46167,CATAHOULA,LA,Grant,17053223,2022/08/31,12:43:00+00,44.43,1.0,51.0,74.0,98.0,58.0
38.4819,-120.31582,BEAVER,CA,Amador,16951868,2022/08/31,13:18:00+00,30.42,1.0,17.0,70.0,28.0,0.0
46.73167,-112.01917,HELENA,MT,Lewis and Clark,16827180,2022/08/31,12:53:00+00,6.18,2.0,68.0,52.0,56.0,1.0
31.92417,-98.59722,COMANCHE,TX,Comanche,17515289,2022/08/31,13:11:00+00,6.87,1.0,180.0,75.0,93.0,63.0
37.82927,-112.11688,TOM BEST SPRING,UT,Garfield,17128229,2022/05/22,18:11:00+00,2.96,7.0,194.0,63.0,14.0,985.0
42.04306,-113.15361,MOBURG CANYON,ID,Cassia,16948029,2022/03/15,12:39:00+00,4.55,20.0,45.0,34.0,58.0,0.0
43.43197,-120.83842,FORT ROCK,OR,Lake,16855342,2022/04/13,00:45:00+00,0.02,15.0,269.0,35.0,41.0,427.0
43.83508,-121.08339,TEPEE DRAW,OR,Deschutes,16970286,2022/03/15,13:20:00+00,6.42,1.0,345.0,36.0,86.0,0.0
33.81472,-80.78111,CONGAREE,SC,Richland,17122332,2022/08/31,12:46:59+00,37.37,0.0,188.0,74.0,100.0,44.0
45.335,-111.95108,DILLON #1 PORTABLE,MT,Madison,17428310,2022/07/07,13:44:00+00,7.77,5.0,157.0,54.0,89.0,76.0
37.84333,-118.47853,BENTON,CA,Mono,16797492,2022/05/05,00:59:59+00,0.12,10.0,171.0,79.0,8.0,471.0
28.885,-99.11056,PEARSALL,TX,Frio,17515548,2022/03/24,06:11:00+00,1.5,0.0,233.0,44.0,39.0,0.0
47.5491,-123.21759,JEFFERSON CREEK,WA,Mason,16985137,2022/03/15,12:36:00+00,0.6,3.0,280.0,37.0,96.0,0.0
48.10908,-88.60727,OJIBWAY,MI,Keweenaw,17135157,2022/06/30,08:25:00+00,3.16,3.0,171.0,50.0,98.0,0.0
61.38186,-149.64961,FWS AK PORT #4,AK,Anchorage,17514527,2021/12/02,16:46:00+00,0.0,0.0,182.0,65.0,34.0,1.0
35.76082,-75.87145,DARE BOMB RANGE (FR2),NC,Dare,17494313,2022/08/31,13:28:59+00,35.62,4.0,317.0,83.0,75.0,414.0
38.20722,-104.99778,RED CREEK,CO,Pueblo,17469983,2022/08/31,12:59:00+00,9.75,0.0,358.0,64.0,49.0,12.0
33.08203,-109.95119,BLACK HILLS,AZ,Graham,16795697,2022/05/02,22:54:00+00,0.89,13.0,313.0,86.0,10.0,726.0
47.76611,-123.96528,OWL MT,WA,Jefferson,16879415,2022/08/23,22:01:00+00,114.76,4.0,234.0,76.0,49.0,805.0
47.22028,-121.96389,ENUMCLAW,WA,King,17389619,2022/03/15,13:09:00+00,34.47,0.0,146.0,44.0,100.0,0.0
47.94611,-91.495,FERNBERG,MN,Lake,17257514,2022/08/31,13:14:00+00,17.15,8.0,329.0,61.0,81.0,175.0
40.6125,-111.09833,NORWAY,UT,Summit,16950060,2022/06/30,08:03:59+00,0.44,1.0,305.0,54.0,73.0,0.0
34.59667,-112.04778,CHERRY,AZ,Yavapai,16938289,2022/07/23,20:12:00+00,3.14,7.0,4.0,94.0,29.0,917.0
33.32694,-110.76694,GLOBE,AZ,Gila,17040170,2022/03/15,13:05:59+00,1.42,2.0,243.0,50.0,22.0,0.0
32.58,-106.525,SAN ANDRES,NM,Dona Ana,17113892,2022/03/15,13:02:00+00,0.28,4.0,10.0,39.0,28.0,0.0
35.42861,-81.93945,RUTHERFORD COUNTY,NC,Rutherford,17330985,2022/08/31,12:46:59+00,31.87,3.0,338.0,70.0,94.0,68.0
40.09861,-74.31611,JACKSON,NJ,Ocean,17392928,2022/03/15,13:11:00+00,7.8,4.0,261.0,46.0,60.0,188.0
34.41056,-101.04917,CAPROCK,TX,Briscoe,17312036,2022/03/15,13:08:00+00,0.48,2.0,335.0,38.0,64.0,3.0
39.06625,-116.31456,SEVEN MILE,NV,Eureka,16818506,2022/05/02,22:37:00+00,0.97,12.0,246.0,63.0,12.0,827.0
40.35167,-106.21528,WILLOW CREEK,CO,Jackson,16928043,2022/08/31,12:52:00+00,12.21,2.0,208.0,56.0,31.0,3.0
39.58983,-121.63516,OPENSHAW,CA,Butte,17091636,2022/08/31,12:55:00+00,17.38,0.0,316.0,66.0,59.0,0.0
46.35781,-118.8685,JUNIPER DUNES,WA,Franklin,16873013,2022/06/09,10:49:00+00,4.1,4.0,151.0,61.0,49.0,0.0
43.55972,-116.20861,MILES CITY PORTABLE_2014,MT,Custer,17502301,2022/01/19,18:36:59+00,0.0,0.0,276.0,32.0,86.0,49.0
48.96311,-119.49161,OROVILLE,WA,Okanogan,16872788,2022/05/05,00:42:00+00,2.33,12.0,134.0,69.0,39.0,257.0
36.06611,-88.16861,CAMDEN TOWER,TN,Benton,17396771,2022/03/15,13:07:00+00,14.02,7.0,305.0,52.0,44.0,22.0
31.91014,-111.89743,SELLS,AZ,Pima,17332768,2022/08/15,16:14:00+00,5.54,3.0,246.0,86.0,58.0,407.0
46.68139,-100.23833,LONG LAKE NWR,ND,Burleigh,17512475,2022/03/15,12:46:59+00,0.23,3.0,168.0,33.0,81.0,0.0
37.14083,-101.90139,CIMARRON,KS,Morton,17354793,2022/03/15,13:23:00+00,0.01,7.0,227.0,25.0,83.0,7.0
32.90775,-114.47403,SQUAW LAKE,CA,Imperial,16796467,2022/03/15,13:27:00+00,0.52,6.0,19.0,58.0,28.0,0.0
35.97113,-118.54074,JOHNSONDALE,CA,Tulare,16938548,2022/04/03,15:55:00+00,10.36,0.0,81.0,55.0,69.0,245.0
37.39167,-113.03889,LAVA POINT RAWS,UT,Washington,17033544,2022/04/25,16:26:00+00,8.64,4.0,114.0,44.0,26.0,688.0
36.06611,-88.16861,CAMDEN TOWER,TN,Benton,17396772,2022/08/31,13:07:00+00,34.86,2.0,246.0,66.0,99.0,28.0
39.46499,-74.44908,EB FORSYTHE,NJ,Atlantic,17172513,2022/08/31,13:26:00+00,24.98,5.0,264.0,77.0,72.0,401.0
46.44028,-89.82667,WAKEFIELD,MI,Gogebic,17279006,2022/05/31,02:00:59+00,3.56,6.0,178.0,78.0,56.0,5.0
34.47394,-118.76156,TEMESCAL (LPF),CA,Ventura,17208116,2022/03/15,13:12:59+00,12.43,0.0,218.0,45.0,53.0,0.0
39.01333,-86.43639,HARDIN RIDGE,IN,Monroe,17077539,2022/08/12,18:10:00+00,32.3,3.0,27.0,80.0,43.0,948.0
19.83272,-155.76973,PUUANAHULU,HI,Hawaii,17386783,2022/03/21,02:38:00+00,1.67,8.0,335.0,71.0,76.0,300.0
37.15383,-92.26883,MOUNTAIN GROVE,MO,Wright,17069591,2022/05/24,23:45:00+00,25.54,9.0,122.0,61.0,100.0,47.0
35.91167,-81.1375,TAYLORSVILLE (LENOIR),NC,Alexander,17084706,2022/08/31,13:04:00+00,36.72,0.0,36.0,70.0,90.0,70.0
35.68194,-85.27333,BLEDSOE SF,TN,Bledsoe,17394718,2022/08/31,13:05:59+00,43.59,0.0,289.0,68.0,100.0,232.0
40.897,-106.431,INDEPENDENCE MOUNTAIN,CO,Jackson,17565468,2022/05/02,22:42:00+00,2.4,6.0,237.0,44.0,55.0,374.0
40.77275,-118.51989,MAJUBA,NV,Humboldt,16814916,2022/08/31,12:46:59+00,2.43,1.0,10.0,62.0,30.0,0.0
43.02301,-90.13934,DODGEVILLE,WI,Iowa,17292072,2022/07/04,12:12:00+00,13.39,5.0,158.0,67.0,78.0,66.0
47.01361,-113.33306,CLEARWATER,MT,Missoula,17544728,2022/03/15,13:31:00+00,2.22,0.0,95.0,34.0,99.0,0.0
32.88122,-116.4288,MT. LAGUNA,CA,San Diego,17021490,2022/08/31,12:52:00+00,14.85,0.0,51.0,59.0,65.0,0.0
39.58442,-117.94392,CHERRY VALLEY,NV,Pershing,16841005,2022/05/02,22:47:59+00,4.11,19.0,270.0,45.0,45.0,444.0
34.43067,-77.78178,NC FIRE RAWS #3,NC,Pender,17430316,2022/03/15,15:13:00+00,27.5,3.0,320.0,69.0,50.0,645.0
35.3625,-119.82333,TWISSELMAN,CA,Kern,17519375,2022/08/22,16:14:00+00,0.0,3.0,300.0,83.0,27.0,461.0
46.05667,-121.53861,BUCK CREEK,WA,Skamania,16974634,2022/08/31,13:26:00+00,12.75,2.0,358.0,62.0,57.0,0.0
37.75947,-119.82056,CRANE,CA,Mariposa,16902208,2022/08/31,12:59:59+00,0.13,6.0,136.0,69.0,21.0,0.0
36.05889,-105.76944,TRUCHAS,NM,Rio Arriba,17080359,2022/05/18,14:11:00+00,3.6,2.0,78.0,55.0,35.0,300.0
45.98399,-121.2614,HART PORTABLE,WA,Klickitat,17260102,2022/05/05,00:36:00+00,0.0,0.0,288.0,72.0,42.0,88.0
31.80247,-94.00022,SABINE NORTH 2,TX,Shelby,17050657,2022/03/15,13:01:00+00,8.37,2.0,291.0,52.0,98.0,3.0
47.94111,-94.46417,KELLIHER,MN,Beltrami,17132584,2022/03/15,13:08:00+00,0.25,8.0,211.0,32.0,67.0,12.0
42.84282,-72.08832,MONADNOCK,NH,Cheshire,19820041,2022/08/31,13:31:59+00,11.61,5.0,276.0,71.0,75.0,538.0
38.30292,-116.19342,PANCAKE,NV,Nye,16839230,2022/05/02,23:27:00+00,0.22,19.0,224.0,76.0,8.0,739.0
45.122,-109.26838,CUSTER #1 PORTABLE,MT,Carbon,17160025,2022/02/10,14:18:00+00,0.0,2.0,128.0,31.0,80.0,0.0
32.685,-116.97361,SAN MIGUEL,CA,San Diego,17324060,2022/07/26,21:49:59+00,7.89,8.0,218.0,79.0,54.0,906.0
63.85025,-145.70513,DONNELLY,AK,Southeast Fairbanks,17482265,2022/08/31,13:25:00+00,6.17,12.0,192.0,54.0,54.0,0.0
40.02092,-108.39811,PINTO,CO,Rio Blanco,16807209,2022/08/31,13:24:00+00,5.39,4.0,159.0,58.0,31.0,23.0
35.61497,-113.79428,MUSIC MOUNTAIN,AZ,Mohave,16792106,2022/04/05,17:53:00+00,1.9,6.0,250.0,70.0,17.0,797.0
35.47808,-117.69933,LAURAL MOUNTAIN,CA,Kern,17146931,2022/08/31,13:27:00+00,3.86,4.0,325.0,85.0,17.0,1.0
34.08394,-118.70345,MALIBU CANYON,CA,Los Angeles,17487917,2022/03/15,12:56:00+00,0.04,0.0,118.0,39.0,91.0,0.0
37.38024,-120.07697,CATHEYS VALLEY,CA,Mariposa,17164840,2022/03/21,03:27:00+00,7.7,8.0,6.0,58.0,30.0,0.0
33.67411,-112.92286,BELMONT,AZ,Maricopa,17167676,2022/05/02,23:02:00+00,0.46,5.0,210.0,89.0,14.0,736.0
47.02819,-105.80472,BIG SHEEP MOUNTAIN,MT,Prairie,16832310,2022/06/20,23:08:00+00,4.82,17.0,256.0,65.0,54.0,65.0
40.79281,-105.57236,REDFEATHER,CO,Larimer,16927279,2022/03/15,13:24:00+00,1.83,17.0,226.0,37.0,17.0,1.0
34.54917,-111.84417,VERDE,AZ,Yavapai,16939058,2022/07/23,23:05:00+00,3.63,10.0,37.0,104.0,23.0,792.0
42.34028,-107.57278,CAMP CREEK,WY,Fremont,16874806,2022/05/05,00:49:59+00,3.35,7.0,297.0,44.0,79.0,191.0
34.35325,-118.41858,CAMP 9,CA,Los Angeles,17110591,2022/03/15,12:55:00+00,13.57,12.0,312.0,58.0,16.0,0.0
21.68833,-157.9525,KII,HI,Honolulu,17358117,2022/03/15,12:46:00+00,4.34,12.0,96.0,74.0,76.0,0.0
62.21667,-144.99485,KLAWASI,AK,Valdez-Cordova,16904235,2022/08/19,16:57:00+00,0.96,8.0,167.0,52.0,61.0,99.0
41.09747,-123.63589,BIG HILL,CA,Humboldt,16840019,2022/08/31,12:41:00+00,1.98,3.0,117.0,66.0,44.0,0.0
40.897,-106.431,INDEPENDENCE MOUNTAIN,CO,Jackson,17565469,2022/08/31,12:42:00+00,8.19,1.0,360.0,52.0,38.0,1.0
35.77067,-115.90942,HORSE THIEF SPRINGS,CA,San Bernardino,16799025,2022/05/05,00:51:00+00,1.1,5.0,301.0,72.0,13.0,446.0
32.70389,-109.91389,COLUMBINE,AZ,Graham,16934964,2022/03/15,13:02:00+00,2.8,0.0,107.0,27.0,26.0,0.0
38.37719,-115.50619,TIMBER MTN,NV,Humboldt,17195324,2022/08/10,18:33:00+00,0.0,6.0,328.0,56.0,85.0,123.0
42.685,-122.39028,ZIM,OR,Jackson,16987436,2022/03/15,12:40:00+00,5.33,5.0,234.0,41.0,98.0,0.0
46.49643,-115.79556,PIERCE,ID,Clearwater,16915772,2022/08/31,12:52:00+00,36.37,0.0,71.0,45.0,97.0,0.0
31.90611,-100.58167,PAINT CREEK,TX,Coke,17514778,2022/03/15,13:10:00+00,1.36,5.0,261.0,40.0,57.0,0.0
44.72194,-122.00306,BOULDER CREEK,OR,Marion,16997680,2022/07/01,08:58:59+00,42.99,0.0,52.0,45.0,94.0,0.0
48.91667,-115.65667,YAAK (UPPER FORD),MT,Lincoln,17235489,2022/08/31,13:07:00+00,0.18,0.0,77.0,38.0,95.0,1.0
35.88194,-118.07556,BEAR PEAK,CA,Tulare,16797738,2022/05/05,01:10:00+00,0.24,14.0,248.0,59.0,27.0,415.0
34.31599,-117.5037,MORMON ROCK,CA,San Bernardino,17031473,2022/03/15,13:17:00+00,8.75,10.0,187.0,46.0,43.0,0.0
38.48667,-117.095,QUIMA PEAK,NV,Lander,17405990,2022/03/15,13:12:00+00,0.25,8.0,175.0,34.0,40.0,0.0
35.86292,-110.61495,HOPI,AZ,Navajo,17357345,2022/08/31,13:14:00+00,5.56,8.0,31.0,61.0,60.0,4.0
38.20028,-81.62,BEE MOUNTAIN,WV,Kanawha,17467674,2022/03/15,13:17:00+00,11.97,4.0,244.0,51.0,41.0,101.0
44.45583,-107.44944,MILL CREEK,WY,Big Horn,16922417,2022/08/01,15:58:00+00,5.71,9.0,285.0,71.0,24.0,559.0
35.30298,-120.67874,SAN LUIS OBISPO,CA,San Luis Obispo,17096744,2022/08/31,12:54:00+00,13.79,3.0,346.0,55.0,98.0,0.0
39.72417,-105.25028,LOOKOUT MOUNTAIN,CO,Jefferson,17553441,2022/07/19,17:11:00+00,8.1,6.0,294.0,81.0,28.0,669.0
19.23222,-155.78,KAHUKU,HI,Hawaii,17233194,2022/03/15,13:30:00+00,2.43,9.0,86.0,55.0,28.0,0.0
43.00167,-123.77861,SIGNAL TREE,OR,Coos,16853303,2022/05/05,00:35:00+00,15.43,15.0,291.0,57.0,68.0,550.0
41.10948,-122.69747,SCORPION,CA,Trinity,16966199,2022/08/31,13:31:59+00,28.42,0.0,78.0,65.0,50.0,0.0
36.50722,-113.81611,OLAF KNOLLS,AZ,Mohave,16788271,2022/03/15,12:33:59+00,0.51,14.0,44.0,49.0,27.0,0.0
36.38254,-120.85582,HERNANDEZ,CA,San Benito,17094693,2022/03/15,13:07:00+00,7.17,9.0,259.0,52.0,45.0,0.0
43.04972,-111.37944,DALE BITNER,ID,Bonneville,17344287,2022/03/15,12:45:00+00,0.0,15.0,121.0,19.0,78.0,0.0
39.06625,-116.31456,SEVEN MILE,NV,Eureka,16818505,2022/03/15,12:36:59+00,0.4,8.0,142.0,34.0,46.0,0.0
43.95215,-114.75735,HORTON PEAK,ID,Custer,16947765,2022/07/06,18:43:00+00,0.21,5.0,185.0,63.0,40.0,479.0
36.36139,-78.09935,WARRENTON,NC,Warren,17348648,2022/08/31,13:17:00+00,29.9,2.0,292.0,75.0,85.0,254.0
45.43778,-91.11697,LADYSMITH,WI,Rusk,17452578,2022/08/31,13:05:59+00,22.6,2.0,272.0,65.0,85.0,116.0
38.34587,-120.22952,COTTAGE,CA,Calaveras,17309755,2022/08/01,20:55:00+00,24.05,8.0,195.0,74.0,43.0,704.0
36.96213,-119.17556,FENCE MEADOW,CA,Fresno,17120577,2022/04/27,18:01:00+00,18.29,7.0,253.0,55.0,53.0,790.0
41.6525,-118.04417,DOUBLE H,NV,Humboldt,16814659,2022/08/31,12:46:59+00,3.95,2.0,205.0,74.0,21.0,0.0
45.45722,-123.8025,TILLAMOOK,OR,Tillamook,17175066,2022/07/27,22:12:59+00,87.09,6.0,300.0,68.0,73.0,793.0
68.07083,-158.70417,NOATAK,AK,Northwest Arctic,16903982,2022/07/19,20:58:00+00,2.43,15.0,145.0,45.0,78.0,325.0
36.41067,-118.80922,CASE MOUNTAIN,CA,Tulare,17338666,2022/05/05,00:35:00+00,14.47,3.0,218.0,65.0,27.0,524.0
37.83888,-118.77189,DEXTER,CA,Mono,16953645,2022/07/29,20:53:00+00,5.74,7.0,20.0,80.0,16.0,277.0
31.50222,-92.46167,CATAHOULA,LA,Grant,17053222,2022/03/15,12:43:00+00,13.67,1.0,243.0,50.0,99.0,2.0
34.40583,-111.28306,SHADOW RIM,AZ,Gila,17553943,2022/08/31,13:09:00+00,14.51,2.0,327.0,60.0,67.0,1.0
55.39583,-116.10806,3 MILE (TEST),ID,Clark,17192241,2022/03/13,19:12:59+00,0.72,4.0,143.0,38.0,60.0,526.0
37.85472,-109.83889,NORTH LONG POINT,UT,San Juan,16945715,2022/08/31,12:39:00+00,6.83,2.0,133.0,53.0,54.0,0.0
38.74167,-75.41528,REDDEN,DE,Sussex,17418268,2022/03/31,13:09:00+00,8.22,5.0,227.0,65.0,77.0,122.0
37.78611,-122.14472,OAKLAND SOUTH,CA,Alameda,17064214,2022/08/31,12:33:00+00,0.07,7.0,243.0,53.0,100.0,0.0
35.70806,-99.90472,CHEYENNE,OK,Roger Mills,17464865,2022/03/24,05:58:59+00,2.09,8.0,257.0,32.0,71.0,0.0
45.6375,-116.46861,PITTSBURG LANDING,ID,Idaho,17012535,2022/06/24,02:11:00+00,9.36,12.0,65.0,77.0,36.0,235.0
46.54069,-112.85533,GRACE,ID,Caribou,16822330,2021/12/02,15:33:59+00,15.23,2.0,181.0,39.0,78.0,0.0
40.44192,-120.62694,HIDDEN VALLEY,CA,Lassen,16813398,2022/08/31,13:12:00+00,0.1,6.0,177.0,91.0,21.0,762.0
19.3175,-155.29222,PALI2,HI,Hawaii,16909108,2022/08/25,02:02:00+00,15.23,8.0,116.0,70.0,87.0,196.0
35.12317,-115.41131,MID HILLS,CA,San Bernardino,16799789,2022/03/15,12:52:00+00,0.17,2.0,307.0,43.0,32.0,0.0
33.984,-118.00943,WHITTIER HILLS,CA,Los Angeles,17188155,2022/03/15,12:58:00+00,0.19,3.0,58.0,56.0,79.0,0.0
30.105,-94.93139,DAYTON,TX,Liberty,17322277,2022/06/27,05:22:00+00,19.9,2.0,172.0,82.0,72.0,0.0
33.81694,-117.46361,LAKE MATHEWS,CA,Riverside,16856385,2022/08/31,13:17:00+00,1.13,2.0,309.0,81.0,26.0,0.0
36.03708,-106.04964,BLACK MESA,NM,Rio Arriba,17119008,2022/04/04,16:34:00+00,1.35,11.0,148.0,55.0,26.0,609.0
46.62167,-116.21833,DENT,ID,Clearwater,17194035,2022/05/02,23:09:00+00,10.26,13.0,222.0,53.0,61.0,326.0
45.80389,-97.45083,MARSHALL CO,SD,Marshall,17174819,2022/08/31,12:59:00+00,11.92,8.0,201.0,64.0,70.0,71.0
62.82278,-156.61389,FLAT,AK,Yukon-Koyukuk,17073441,2022/08/31,12:52:00+00,13.14,12.0,191.0,45.0,99.0,0.0
35.14278,-93.895,BOONEVILLE,AR,Logan,17125163,2022/08/31,13:02:59+00,19.08,1.0,139.0,75.0,100.0,46.0
42.59772,-123.10503,EVANS CREEK,OR,Jackson,16857422,2022/08/31,12:59:00+00,12.95,0.0,104.0,69.0,43.0,0.0
47.04136,-113.98631,POINT 6,MT,Missoula,17035069,2022/06/23,01:59:00+00,8.04,22.0,261.0,57.0,41.0,422.0
45.57722,-109.87889,DERBY MOUNTAIN,MT,Sweet Grass,17035817,2022/08/04,14:35:00+00,11.93,5.0,187.0,78.0,27.0,269.0
35.12317,-115.41131,MID HILLS,CA,San Bernardino,16799791,2022/08/31,12:52:00+00,6.73,3.0,300.0,72.0,39.0,0.0
43.51444,-119.29472,SAGE HEN,OR,Harney,16852782,2022/05/05,00:43:59+00,1.96,14.0,88.0,71.0,26.0,474.0
43.565,-116.20806,HYDROMET TEST 1,ID,Ada,19758603,2022/03/15,13:14:00+00,1.4,12.0,276.0,47.0,65.0,0.0
47.24,-95.19,ITASCA,MN,Clearwater,17207075,2022/03/15,13:08:00+00,15.98,4.0,180.0,30.0,75.0,14.0
32.86722,-98.56167,POSSUM KINGDOM,TX,Palo Pinto,17310243,2022/08/31,13:05:00+00,11.25,3.0,133.0,75.0,96.0,26.0
36.89047,-82.45708,FLATWOODS,VA,Wise,17048867,2022/08/24,19:11:00+00,1.27,1.0,336.0,52.0,68.0,778.0
46.27139,-122.89194,CASTLE ROCK,WA,Cowlitz,17388841,2022/03/15,13:09:00+00,37.73,1.0,177.0,46.0,100.0,0.0
34.43501,-118.51318,SAUGUS,CA,Los Angeles,17111352,2022/03/15,12:57:00+00,6.89,4.0,79.0,52.0,53.0,0.0
39.46003,-108.88031,DEMAREE,CO,Garfield,17067047,2022/07/18,09:49:59+00,4.64,9.0,198.0,72.0,32.0,0.0
46.01147,-123.55628,TIDEWATER,OR,Clatsop,17335341,2022/03/23,05:15:00+00,68.57,2.0,70.0,52.0,100.0,0.0
45.31917,-116.8675,HARL BUTTE,OR,Wallowa,17000240,2022/08/10,21:56:00+00,8.27,13.0,161.0,74.0,51.0,758.0
35.428,-78.02282,FINCH'S STATION,NC,Wayne,17498678,2022/08/31,13:15:00+00,20.43,2.0,355.0,79.0,80.0,333.0
38.69389,-82.63972,DEAN,OH,Lawrence,17079849,2022/03/15,13:12:00+00,13.24,4.0,198.0,49.0,44.0,59.0
40.61948,-121.89962,WHITMORE,CA,Shasta,17105453,2022/06/24,02:26:00+00,30.04,1.0,270.0,87.0,23.0,141.0
32.90972,-105.46972,MAYHILL,NM,Otero,17041453,2022/03/15,13:02:00+00,0.66,5.0,253.0,28.0,55.0,0.0
44.25239,-123.46386,VILLAGE CREEK,OR,Lane,16854594,2022/03/15,12:54:00+00,48.84,1.0,160.0,43.0,100.0,0.0
34.77614,-113.3375,GOODWIN MESA,AZ,Yavapai,16791606,2022/05/02,23:21:00+00,1.67,12.0,206.0,77.0,12.0,746.0
41.33267,-120.47281,JUNIPER CREEK,CA,Modoc,16804149,2022/03/15,12:53:00+00,5.29,5.0,155.0,48.0,43.0,223.0
34.29058,-117.2135,ROCK CAMP,CA,San Bernardino,17411367,2022/03/15,13:02:00+00,18.47,7.0,155.0,53.0,29.0,0.0
40.35167,-106.21528,WILLOW CREEK,CO,Jackson,16928042,2022/03/15,12:52:00+00,1.53,5.0,179.0,21.0,59.0,0.0
38.24031,-94.66756,STATE LINE,KS,Linn,17512225,2022/08/30,23:47:00+00,26.45,1.0,10.0,87.0,37.0,227.0
46.24414,-107.88269,BILLINGS QD #1,MT,Yellowstone,17481796,2022/03/15,12:51:00+00,0.18,8.0,147.0,43.0,50.0,0.0
38.90417,-120.70522,BALD MTN LOC,CA,El Dorado,16952126,2022/08/31,12:36:00+00,1.97,1.0,162.0,73.0,22.0,0.0
48.87528,-119.06667,LOST LAKE,WA,Okanogan,16983105,2022/06/08,09:36:59+00,6.31,5.0,157.0,56.0,49.0,0.0
39.63369,-109.26525,MCCOOK RIDGE,UT,Uintah,16870458,2022/04/25,16:27:00+00,4.3,6.0,2.0,45.0,55.0,698.0
45.05486,-105.94842,BRADSHAW CREEK,MT,Powder River,16831794,2022/08/31,13:25:00+00,8.37,2.0,230.0,63.0,45.0,51.0
46.61,-122.90833,CHEHALIS,WA,Lewis,17347111,2022/03/15,13:09:00+00,33.88,2.0,152.0,47.0,91.0,0.0
35.61167,-118.405,LYNCH CANYON,CA,Kern,17518617,2022/08/22,16:18:59+00,0.34,4.0,353.0,83.0,25.0,434.0
39.6725,-119.77,DESERT SPRINGS,NV,Washoe,16840498,2022/05/02,22:41:00+00,0.69,35.0,284.0,55.0,29.0,710.0
34.12408,-116.40883,YUCCA VALLEY,CA,San Bernardino,17105705,2022/03/15,12:56:00+00,2.84,0.0,219.0,42.0,39.0,0.0
48.61917,-120.10861,FIRST BUTTE,WA,Okanogan,16982338,2022/08/31,12:36:59+00,4.4,4.0,120.0,70.0,27.0,0.0
32.99031,-116.06697,FISH CREEK MOUNTAINS,CA,Imperial,16802097,2022/05/05,01:26:00+00,0.67,8.0,140.0,90.0,8.0,315.0
41.02556,-77.16722,GARDEN HOLLOW,PA,Centre,17527575,2022/08/25,22:09:00+00,25.21,1.0,351.0,76.0,57.0,66.0
33.34123,-116.78982,CNF30 PORTABLE,CA,San Diego,19871238,2022/07/25,18:13:00+00,10.66,7.0,85.0,83.0,42.0,859.0
44.70192,-113.34692,LEADORE CREEK,ID,Lemhi,16823861,2022/08/31,12:36:00+00,5.96,2.0,121.0,48.0,39.0,0.0
32.44694,-97.81694,GRANBURY,TX,Hood,17427236,2022/08/31,13:04:00+00,12.86,0.0,339.0,75.0,94.0,33.0
42.77908,-123.73464,CALVERT PEAK,OR,Curry,16857147,2022/07/19,19:41:00+00,26.33,2.0,302.0,82.0,34.0,912.0
47.56214,-107.5285,SOUTH SAWMILL CREEK,MT,Garfield,16831019,2022/03/17,17:09:00+00,5.8,11.0,251.0,41.0,43.0,563.0
39.24444,-119.88083,LITTLE VALLEY (WRCC),NV,Washoe,17371940,2022/05/02,22:39:00+00,3.08,18.0,262.0,47.0,54.0,839.0
35.803,-82.6504,7 MILE RIDGE,NC,Madison,17426729,2022/08/31,12:36:59+00,26.58,0.0,256.0,63.0,96.0,96.0
31.97236,-104.94791,PX WELL,TX,Hudspeth,17572372,2022/03/15,12:54:00+00,0.49,4.0,130.0,37.0,48.0,0.0
61.08861,-149.73861,RABBIT CREEK,AK,Anchorage,17482785,2022/04/26,22:56:00+00,0.0,3.0,227.0,53.0,61.0,682.0
44.68667,-112.54167,ANTELOPE,MT,Beaverhead,16825896,2022/05/19,15:00:00+00,1.45,24.0,339.0,37.0,35.0,384.0
37.03083,-122.18781,COAST DAIRIES,CA,Santa Cruz,19753480,2022/05/05,01:09:00+00,25.65,5.0,291.0,68.0,52.0,414.0
41.26909,-123.18897,BLUE RIDGE (KNF),CA,Siskiyou,17207846,2022/08/31,12:52:00+00,17.01,9.0,347.0,61.0,44.0,0.0
40.81317,-121.34256,LNF07 PORTABLE,CA,Shasta,17569600,2022/03/03,11:53:00+00,0.0,0.0,252.0,41.0,76.0,0.0
37.03083,-122.18781,COAST DAIRIES,CA,Santa Cruz,19753479,2022/03/15,13:09:00+00,22.46,5.0,303.0,53.0,100.0,0.0
47.21492,-114.0287,PISTOL CREEK,MT,Lake,17137696,2022/08/31,12:42:00+00,10.39,5.0,175.0,64.0,30.0,0.0
36.84361,-118.26556,OAK CREEK,CA,Inyo,17006908,2022/03/15,12:43:00+00,0.0,6.0,293.0,46.0,33.0,0.0
35.72167,-118.49889,WOFFORD HEIGHTS,CA,Kern,16798518,2022/05/05,01:01:00+00,1.8,12.0,285.0,75.0,17.0,419.0
31.10972,-83.42694,ADEL,GA,Cook,17327902,2022/08/31,13:04:00+00,33.85,2.0,229.0,81.0,87.0,209.0
31.10972,-83.42694,ADEL,GA,Cook,17327905,2022/01/18,15:04:00+00,2.74,5.0,353.0,43.0,62.0,361.0
46.42028,-92.80083,MOOSE LAKE,MN,Carlton,17133864,2022/03/15,13:08:00+00,0.28,3.0,215.0,20.0,69.0,30.0
32.67475,-116.09447,MOUNTAIN SPRINGS GRADE,CA,San Diego,17569045,2022/06/24,01:50:59+00,3.19,19.0,231.0,92.0,21.0,271.0
38.94583,-75.93556,TUCKAHOE,MD,Caroline,17554714,2022/08/31,13:15:59+00,29.4,4.0,319.0,77.0,72.0,343.0
44.29663,-90.72678,BLACK RIVER FALLS,WI,Jackson,17450793,2022/08/31,13:15:59+00,23.1,2.0,242.0,67.0,77.0,184.0
43.25861,-98.75917,LAKE ANDES,SD,Charles Mix,17409325,2022/08/31,12:42:00+00,14.3,9.0,214.0,66.0,69.0,11.0
34.18847,-112.13467,SUNSET POINT,AZ,Yavapai,16792877,2022/03/15,12:53:00+00,0.82,9.0,34.0,48.0,31.0,0.0
46.35389,-121.60417,ORR CREEK,WA,Skamania,16974901,2022/06/29,07:09:00+00,57.42,0.0,297.0,49.0,100.0,0.0
55.69674,-132.5403,THORNE RIVER,AK,Prince of Wales-Outer Ketchikan,17003830,2022/06/03,04:55:00+00,25.41,1.0,137.0,63.0,56.0,10.0
37.65111,-108.53694,SALTER,CO,Dolores,16929075,2022/03/15,13:25:00+00,5.23,1.0,322.0,20.0,61.0,0.0
41.39007,-123.49267,SOMES BAR,CA,Siskiyou,16955190,2022/07/06,19:17:00+00,44.45,8.0,162.0,78.0,53.0,946.0
41.47892,-122.45462,WEED AIRPORT,CA,Siskiyou,17104935,2022/08/31,12:48:00+00,6.68,12.0,167.0,74.0,38.0,0.0
29.10636,-81.62944,CENTRAL,FL,Lake,17046831,2022/03/15,12:58:00+00,7.63,0.0,47.0,63.0,96.0,40.0
45.38953,-87.96541,WAUSAUKEE,WI,Marinette,17451300,2022/03/15,13:05:59+00,1.25,2.0,206.0,27.0,97.0,23.0
42.82861,-116.58861,TRIANGLE,ID,Owyhee,16817452,2022/05/02,22:56:00+00,5.23,16.0,283.0,42.0,74.0,517.0
40.72149,-123.49629,UNDERWOOD,CA,Trinity,17245244,2022/05/02,23:25:00+00,28.93,5.0,220.0,52.0,39.0,853.0
35.91167,-81.1375,TAYLORSVILLE (LENOIR),NC,Alexander,17084705,2022/03/15,13:04:00+00,10.62,1.0,224.0,41.0,76.0,60.0
44.58179,-104.7195,DEVILS TOWER,WY,Crook,17137189,2022/06/14,15:23:00+00,8.91,3.0,91.0,49.0,83.0,156.0
48.43919,-93.04999,KABNAM,MN,St. Louis,17135639,2022/08/31,13:31:00+00,24.47,3.0,297.0,65.0,74.0,232.0
39.01883,-122.41169,COUNTY LINE,CA,Lake,16804419,2022/08/31,12:36:59+00,14.08,2.0,208.0,71.0,19.0,0.0
31.18694,-90.47806,PIKE,MS,Pike,17401371,2022/03/10,00:10:00+00,5.34,5.0,237.0,53.0,74.0,22.0
36.45308,-112.23825,DRY PARK,AZ,Coconino,16936251,2022/06/19,21:38:00+00,2.42,7.0,226.0,69.0,7.0,1053.0
34.23917,-111.30278,PAYSON,AZ,Gila,16940088,2022/08/31,13:11:00+00,10.11,1.0,174.0,67.0,50.0,1.0
38.54053,-105.20397,FOUR MILE,CO,Fremont,17567774,2022/05/02,22:39:00+00,3.19,8.0,169.0,61.0,31.0,645.0
32.90775,-114.47403,SQUAW LAKE,CA,Imperial,16796468,2022/05/01,22:27:00+00,0.54,10.0,222.0,95.0,10.0,867.0
44.54312,-72.52906,ELMORE,VT,Lamoille,17293352,2022/08/31,12:49:00+00,22.41,3.0,310.0,66.0,89.0,97.0
44.38167,-103.45722,SDFO QD1,SD,Meade,17472822,2022/01/06,12:51:00+00,0.0,0.0,40.0,33.0,100.0,0.0
46.35781,-118.8685,JUNIPER DUNES,WA,Franklin,16873012,2022/05/05,00:49:00+00,3.08,1.0,226.0,76.0,34.0,304.0
44.84361,-108.095,WILLOW CREEK,WY,Big Horn,19625488,2022/08/01,16:50:00+00,4.45,2.0,162.0,86.0,22.0,429.0
44.57386,-109.26136,RATTLESNAKE MTN.,WY,Park,16876592,2022/06/16,01:41:00+00,10.48,6.0,218.0,54.0,33.0,351.0
39.38583,-82.985,CHILLICOTHE,OH,Ross,17366045,2022/08/31,12:43:59+00,33.21,2.0,224.0,66.0,83.0,163.0
66.0425,-147.97139,LOST CREEK,AK,Yukon-Koyukuk,16894760,2022/05/23,19:21:59+00,0.02,4.0,82.0,47.0,35.0,606.0
47.53611,-113.71722,CONDON WORK CENTER,MT,Missoula,17024055,2022/03/15,13:09:00+00,23.96,0.0,93.0,33.0,98.0,0.0
45.16583,-111.35944,YELLOW MULE,MT,Gallatin,17081125,2022/03/07,08:03:59+00,0.26,8.0,233.0,0.0,65.0,0.0
38.56458,-77.37113,PRINCE WILLIAM,VA,Prince William,17400085,2022/05/18,13:36:00+00,16.26,1.0,106.0,67.0,42.0,543.0
40.01806,-105.36139,SUGARLOAF,CO,Boulder,17184048,2022/08/31,13:25:00+00,14.22,5.0,271.0,68.0,26.0,21.0
34.18847,-112.13467,SUNSET POINT,AZ,Yavapai,16792879,2022/08/31,12:53:00+00,6.16,7.0,30.0,74.0,48.0,0.0
64.81372,-147.6288,SMALL ARMS RANGE,AK,Fairbanks North Star,17480213,2022/04/28,19:25:00+00,1.37,1.0,226.0,50.0,37.0,386.0
32.65833,-80.39889,ACE BASIN,SC,Charleston,17572898,2022/03/15,12:59:59+00,3.41,3.0,59.0,58.0,89.0,154.0
36.07648,-108.86146,WASHINGTON PASS,NM,San Juan,17408289,2022/08/31,12:41:00+00,13.1,0.0,152.0,53.0,77.0,0.0
38.27947,-119.62331,LEAVITT LAKE,CA,Mono,19882247,2022/06/23,15:27:00+00,0.2,4.0,273.0,73.0,41.0,178.0
26.44083,-82.10472,DING DARLING NWR,FL,Lee,17530902,2022/03/15,13:17:00+00,3.4,8.0,69.0,71.0,85.0,165.0
43.90639,-123.37956,HIGH POINT,OR,Lane,16853819,2022/03/15,12:54:00+00,31.47,5.0,226.0,43.0,100.0,0.0
47.79992,-121.286,JOHNSON RIDGE,WA,Snohomish,16977463,2022/03/15,13:28:59+00,66.43,1.0,56.0,35.0,99.0,0.0
31.9961,-104.83375,DOG CANYON,TX,Culberson,17572630,2022/08/31,12:54:00+00,14.77,3.0,349.0,59.0,93.0,0.0
60.48413,-150.46057,SKILAK GUARD STATION,AK,Kenai Peninsula,17228317,2022/05/13,15:54:00+00,0.02,1.0,56.0,39.0,90.0,28.0
41.56444,-77.40861,OLD MOUNTAIN,PA,Tioga,17549086,2022/08/04,19:15:59+00,19.88,4.0,225.0,74.0,81.0,285.0
45.72306,-122.34528,LARCH MT.,WA,Clark,17389098,2022/03/15,13:09:00+00,61.64,2.0,133.0,44.0,99.0,0.0
42.49975,-123.36917,MERLIN,OR,Josephine,16856118,2022/08/31,12:58:00+00,12.16,0.0,106.0,57.0,64.0,0.0
40.43814,-114.81017,SPRUCE MOUNTAIN,NV,Elko,16842797,2022/08/31,12:42:00+00,6.16,4.0,296.0,62.0,32.0,0.0
34.06056,-108.44472,SLAUGHTER,NM,Catron,16935468,2022/04/07,20:13:00+00,0.0,6.0,344.0,59.0,8.0,966.0
42.97795,-109.12211,WIND RIVER,WY,Fremont,16783923,2022/03/15,13:02:00+00,0.85,7.0,155.0,34.0,54.0,0.0
39.35019,-113.38489,TULE VALLEY,UT,Millard,16867370,2022/03/15,12:36:59+00,0.38,4.0,45.0,39.0,44.0,0.0
35.37132,-88.82893,CHICKASAW SF,TN,Hardeman,17396521,2022/08/31,13:07:00+00,48.13,2.0,11.0,70.0,89.0,43.0
48.46083,-117.73306,LITTLE PEND OREILLE NWR,WA,Stevens,17343011,2022/03/28,10:28:59+00,3.93,2.0,114.0,33.0,94.0,0.0
43.77839,-103.64058,CUSTER,SD,Custer,17021744,2022/05/26,22:25:00+00,4.48,9.0,278.0,72.0,23.0,745.0
38.66694,-112.65125,HORSE HOLLOW,UT,Millard,16866859,2022/03/15,12:36:59+00,0.55,6.0,185.0,38.0,43.0,0.0
47.8725,-112.67083,GLEASON,MT,Teton,17034274,2022/05/13,15:09:00+00,3.3,11.0,271.0,40.0,54.0,224.0
34.34417,-87.3375,BANKHEAD,AL,Lawrence,17043492,2022/08/17,19:37:00+00,37.02,1.0,111.0,74.0,79.0,254.0
42.07956,-114.486,BULL SPRING,ID,Twin Falls,16819518,2022/05/18,13:55:00+00,0.16,0.0,303.0,36.0,95.0,26.0
48.51061,-113.99677,WEST GLACIER,MT,Flathead,17260587,2022/07/06,19:12:59+00,38.11,4.0,14.0,77.0,41.0,760.0
43.22572,-113.57483,POTTER BUTTE,ID,Blaine,16825142,2022/05/02,22:54:00+00,1.15,36.0,257.0,47.0,58.0,410.0
41.27681,-121.98057,ASH CREEK,CA,Siskiyou,16964663,2022/03/15,12:59:59+00,19.53,0.0,102.0,39.0,100.0,0.0
46.24083,-84.51111,RUDYARD,MI,Chippewa,17281057,2022/05/04,00:14:59+00,1.37,8.0,327.0,40.0,86.0,95.0
47.15222,-120.94667,PEOH POINT,WA,Kittitas,16879659,2022/06/22,00:12:00+00,14.55,5.0,270.0,68.0,42.0,576.0
36.155,-113.54944,YELLOW JOHN MOUNTAIN,AZ,Coconino,16791083,2022/03/15,12:49:59+00,1.55,0.0,67.0,21.0,94.0,0.0
37.50194,-121.73556,ROSE PEAK,CA,Alameda,17062942,2022/04/12,16:28:59+00,13.11,4.0,331.0,37.0,69.0,376.0
40.56633,-116.75769,BEACON LIGHT,NV,Lander,16837946,2022/08/31,12:39:00+00,3.29,0.0,69.0,72.0,20.0,0.0
39.93894,-122.16973,CORNING,CA,Tehama,17097006,2022/06/24,01:55:00+00,11.32,9.0,141.0,97.0,23.0,307.0
39.29158,-82.39231,ZALESKI,OH,Vinton,17366302,2022/08/31,12:51:00+00,39.7,1.0,177.0,61.0,98.0,31.0
37.0548,-121.05309,LOS BANOS,CA,Merced,17099047,2022/03/15,13:02:00+00,4.09,3.0,282.0,57.0,70.0,0.0
48.05331,-116.79335,HOODOO,ID,Bonner,17076790,2022/06/28,06:09:00+00,16.18,2.0,85.0,58.0,78.0,0.0
33.81694,-117.46361,LAKE MATHEWS,CA,Riverside,16856383,2022/03/15,13:17:00+00,0.42,3.0,160.0,58.0,57.0,0.0
32.40383,-110.27194,MULESHOE RANCH,AZ,Cochise,16794415,2022/08/31,13:02:59+00,11.1,7.0,74.0,70.0,54.0,1.0
41.89722,-100.31056,BESSEY,NE,Thomas,16926003,2022/03/15,13:24:00+00,0.29,5.0,215.0,36.0,67.0,16.0
37.18889,-93.92972,MT VERNON,MO,Lawrence,17070885,2022/08/31,12:59:59+00,30.88,2.0,90.0,68.0,77.0,78.0
34.47394,-118.76156,TEMESCAL (LPF),CA,Ventura,17208117,2022/03/16,23:13:00+00,12.43,7.0,352.0,71.0,26.0,425.0
31.38389,-97.41278,MCGREGOR,TX,McLennan,17422875,2022/04/25,16:02:00+00,4.78,11.0,23.0,64.0,92.0,150.0
47.61972,-91.3775,ISABELLA,MN,Lake,17078577,2022/08/31,13:04:00+00,22.86,6.0,295.0,60.0,81.0,132.0
48.49028,-117.43583,TACOMA CREEK,WA,Pend Oreille,16969769,2022/08/31,13:04:00+00,17.04,0.0,337.0,54.0,70.0,0.0
42.70806,-118.51,LITTLE MCCOY CREEK,OR,Harney,17397802,2022/05/05,00:57:00+00,4.51,4.0,228.0,65.0,25.0,385.0
36.45308,-112.23825,DRY PARK,AZ,Coconino,16936252,2022/08/31,12:38:00+00,12.87,4.0,80.0,50.0,48.0,0.0
38.23333,-108.56167,NUCLA,CO,Montrose,17145642,2022/03/15,22:57:59+00,0.79,6.0,235.0,64.0,14.0,570.0
59.77939,-151.16417,HOMER,AK,Kenai Peninsula,17143070,2022/05/13,16:55:00+00,0.03,3.0,220.0,41.0,78.0,145.0
37.73745,-118.99658,CRESTVIEW,CA,Mono,16953385,2022/08/20,16:53:00+00,21.82,0.0,6.0,63.0,53.0,189.0
40.77275,-118.51989,MAJUBA,NV,Humboldt,16814914,2022/03/15,12:46:59+00,0.45,4.0,269.0,46.0,46.0,0.0
44.25239,-123.46386,VILLAGE CREEK,OR,Lane,16854595,2022/05/05,00:54:00+00,59.63,2.0,263.0,69.0,54.0,395.0
39.25472,-105.13194,POLHEMUS,CO,Douglas,17353001,2022/08/31,12:54:00+00,13.76,3.0,109.0,57.0,62.0,5.0
43.53628,-117.83172,RED BUTTE,OR,Malheur,16862521,2022/05/05,01:24:00+00,22.26,5.0,133.0,70.0,28.0,353.0
44.59811,-119.30765,BOARD CREEK,OR,Grant,16857647,2022/05/11,07:28:59+00,7.68,2.0,287.0,31.0,64.0,0.0
34.73443,-120.00656,FIGUEROA,CA,Santa Barbara,17208615,2022/03/15,12:36:00+00,9.34,1.0,233.0,59.0,26.0,0.0
40.30326,-77.58981,BIG KNOB,PA,Perry,17526816,2022/03/29,06:08:00+00,7.49,5.0,259.0,22.0,49.0,0.0
36.79361,-112.0425,FOUR SPRINGS,AZ,Coconino,16814128,2022/05/02,23:19:00+00,0.44,10.0,275.0,70.0,9.0,727.0
46.776,-104.58019,PINE HILL,MT,Wibaux,16833593,2022/05/10,04:25:00+00,2.05,6.0,241.0,47.0,51.0,0.0
36.13472,-115.43,RED ROCK,NV,Clark,16846643,2022/08/31,12:33:59+00,1.84,9.0,286.0,79.0,25.0,0.0
42.89894,-111.83325,POLE CANYON,ID,Caribou,16821558,2022/05/10,03:46:59+00,2.35,2.0,224.0,25.0,71.0,0.0
34.61806,-111.34222,HAPPY JACK,AZ,Coconino,17018151,2022/03/15,13:02:00+00,1.64,0.0,60.0,18.0,91.0,0.0
44.46547,-105.8445,ECHETA,WY,Campbell,16873267,2022/05/05,00:51:00+00,1.88,9.0,156.0,50.0,78.0,102.0
32.85917,-117.10556,CAMP ELLIOTT,CA,San Diego,17475852,2022/04/28,19:24:00+00,8.08,9.0,227.0,67.0,55.0,668.0
45.29722,-106.16183,FORT HOWES,MT,Powder River,16831288,2022/05/02,23:27:00+00,2.36,15.0,136.0,56.0,53.0,234.0
34.53803,-81.56192,WHITMIRE,SC,Union,17052203,2022/03/15,12:58:00+00,9.5,1.0,352.0,41.0,89.0,115.0
46.89491,-103.37779,PAINTED CANYON,ND,Billings,17137447,2022/06/01,04:14:00+00,6.83,5.0,295.0,53.0,35.0,0.0
45.45964,-111.24447,SHENANGO,MT,Gallatin,16918062,2022/03/15,12:40:00+00,2.16,5.0,36.0,41.0,51.0,0.0
48.02234,-123.9583,TOMS CREEK,WA,Clallam,16986159,2022/03/15,13:26:00+00,0.0,2.0,201.0,36.0,99.0,0.0
35.31583,-83.20694,JACKSON COUNTY,NC,Jackson,17350698,2022/03/15,13:10:00+00,13.47,1.0,28.0,41.0,58.0,71.0
30.45111,-89.45444,HANCOCK,MS,Hancock,17365280,2022/08/31,13:09:00+00,58.01,0.0,146.0,76.0,100.0,131.0
42.48389,-100.52306,VALENTINE,NE,Cherry,17262388,2022/08/31,13:14:00+00,10.42,10.0,221.0,70.0,56.0,31.0
34.17786,-110.27663,LIMESTONE CANYON,AZ,Navajo,16777526,2022/07/07,14:24:00+00,3.35,2.0,338.0,75.0,23.0,229.0
32.51795,-110.36328,RO PORTABLE #2,AZ,Cochise,17319487,2022/03/31,16:18:00+00,0.59,3.0,225.0,62.0,38.0,517.0
33.67411,-112.92286,BELMONT,AZ,Maricopa,17167677,2022/08/31,13:02:00+00,5.28,3.0,262.0,79.0,52.0,0.0
62.71,-146.61806,RENEE,AK,Valdez-Cordova,17147432,2022/05/02,23:19:00+00,11.32,22.0,135.0,37.0,45.0,640.0
39.84444,-105.51722,PICKLE GULCH,CO,Gilpin,17206574,2022/03/15,13:24:00+00,1.0,2.0,336.0,32.0,10.0,1.0
46.45415,-113.10122,DILLON #1 PORTABLE,MT,Granite,17428297,2021/12/15,12:43:59+00,0.0,0.0,105.0,20.0,83.0,0.0
40.30072,-112.77678,CEDAR MOUNTAIN,UT,Tooele,17223981,2022/08/31,12:55:00+00,3.32,1.0,217.0,65.0,36.0,0.0
26.44083,-82.10472,DING DARLING NWR,FL,Lee,17530903,2022/08/31,13:17:00+00,31.91,2.0,78.0,83.0,89.0,131.0
42.55678,-120.60219,COFFEE POT FLAT 2,OR,Lake,16855858,2022/04/11,21:45:00+00,0.01,13.0,253.0,30.0,54.0,700.0
31.185,-92.63139,EVANGELINE,LA,Rapides,17053740,2022/08/31,12:43:00+00,36.02,0.0,86.0,74.0,97.0,64.0
35.84417,-84.33167,LENOIR CITY,TN,Loudon,17394465,2022/03/15,13:05:59+00,15.89,2.0,200.0,51.0,40.0,75.0
44.37207,-114.7291,BONANZA,ID,Custer,16944185,2022/07/18,18:49:59+00,7.6,9.0,266.0,76.0,16.0,937.0
63.38295,-158.82373,INNOKO FLATS,AK,Yukon-Koyukuk,16785702,2022/05/23,19:12:00+00,0.02,3.0,31.0,61.0,38.0,374.0
39.82497,-123.08431,EEL RIVER (MNF),CA,Mendocino,16959533,2022/08/31,12:46:00+00,27.93,0.0,61.0,54.0,74.0,0.0
40.74917,-74.85861,TEETERTOWN,NJ,Hunterdon,17393185,2022/08/31,13:11:00+00,28.65,5.0,304.0,71.0,82.0,279.0
34.40818,-119.37124,CASITAS,CA,Ventura,17398571,2022/03/16,23:10:00+00,15.96,8.0,212.0,80.0,12.0,645.0
32.17972,-103.72167,PADUCA,NM,Lea,16836645,2022/05/02,22:40:00+00,2.05,15.0,285.0,92.0,5.0,713.0
42.70139,-73.93361,ALBANY PINE BUSH,NY,Albany,17476633,2022/03/15,13:15:00+00,3.9,0.0,237.0,39.0,73.0,121.0
33.60544,-116.93908,SAGE,CA,Riverside,16813118,2022/08/31,13:14:00+00,7.53,3.0,79.0,80.0,37.0,0.0
46.26094,-108.09939,STEAMBOAT,MT,Yellowstone,17507617,2022/05/02,22:42:00+00,2.76,10.0,154.0,57.0,55.0,431.0
43.66361,-122.62917,SUGARLOAF,OR,Lane,16995135,2022/03/29,06:07:00+00,22.92,0.0,269.0,39.0,100.0,0.0
39.09159,-120.73198,SEEDORCHARD,CA,Placer,17244455,2022/05/06,01:33:00+00,72.28,1.0,174.0,56.0,44.0,98.0
38.38,-120.93028,CFA RAWS,CA,Amador,17225781,2022/03/21,03:04:59+00,15.57,8.0,3.0,60.0,25.0,3.0
40.75758,-107.8535,GREAT DIVIDE,CO,Moffat,16807463,2022/05/02,22:46:00+00,0.79,12.0,198.0,51.0,50.0,440.0
39.51244,-107.74892,RIFLE,CO,Garfield,16807732,2022/07/16,14:51:59+00,5.29,2.0,59.0,67.0,73.0,363.0
36.56924,-115.09051,WAMP SPRINGS,NV,Clark,17323548,2022/03/15,13:30:00+00,0.07,4.0,4.0,27.0,55.0,0.0
45.10392,-108.21972,HILLSBORO,MT,Carbon,17379878,2022/08/31,13:30:00+00,7.86,2.0,61.0,61.0,45.0,39.0
34.12614,-117.94717,SANTA FE DAM,CA,Los Angeles,17111099,2022/03/15,12:57:00+00,0.26,0.0,48.0,49.0,87.0,0.0
44.84361,-108.095,WILLOW CREEK,WY,Big Horn,19625487,2022/05/05,00:49:59+00,3.05,15.0,16.0,65.0,30.0,340.0
37.50402,-119.98679,MARIPOSA,CA,Mariposa,17099561,2022/03/21,03:08:00+00,14.19,6.0,352.0,46.0,63.0,1.0
34.66857,-117.82184,SADDLEBACK BUTTE,CA,Los Angeles,17150261,2022/08/31,12:57:00+00,2.68,2.0,295.0,65.0,46.0,0.0
43.57197,-115.32753,WAGONTOWN,ID,Elmore,17397543,2022/07/07,14:09:00+00,1.21,2.0,48.0,67.0,49.0,96.0
65.58458,-144.36353,BIRCH CREEK,AK,Yukon-Koyukuk,17149725,2022/05/23,19:10:00+00,0.14,6.0,317.0,45.0,51.0,567.0
32.65833,-80.39889,ACE BASIN,SC,Charleston,17572893,2022/05/16,12:00:00+00,7.89,7.0,226.0,75.0,87.0,158.0
48.64806,-102.40639,LOSTWOOD,ND,Burke,17174051,2022/08/31,12:57:00+00,13.63,4.0,205.0,59.0,77.0,14.0
60.7269,-149.28962,GRANITE,AK,Kenai Peninsula,17002791,2022/06/10,11:56:00+00,0.1,0.0,220.0,45.0,98.0,0.0
45.24056,-121.45306,WAMIC MILL,OR,Wasco,16979242,2022/06/07,09:16:00+00,8.37,0.0,317.0,44.0,72.0,0.0
41.77496,-122.95182,COLLINS BALDY,CA,Siskiyou,16954923,2022/06/25,03:32:00+00,10.17,3.0,341.0,73.0,33.0,129.0
48.25056,-120.00333,LEECHER,WA,Okanogan,16983612,2022/06/09,11:25:00+00,3.83,5.0,355.0,46.0,52.0,0.0
43.14917,-90.68417,BOSCOBEL,WI,Grant,17462050,2022/07/04,12:03:00+00,12.23,1.0,47.0,64.0,100.0,54.0
45.11433,-67.2806,MOOSEHORN,ME,Washington,17170476,2022/03/15,13:20:00+00,8.17,1.0,315.0,39.0,61.0,158.0
39.68462,-74.86474,ANCORA HOSPITAL,NJ,Camden,17392163,2022/03/15,13:10:00+00,6.29,5.0,219.0,46.0,65.0,220.0
32.00611,-109.35694,HEADQUARTERS,AZ,Cochise,17014073,2022/08/31,12:36:59+00,17.89,2.0,66.0,63.0,66.0,0.0
34.61806,-111.34222,HAPPY JACK,AZ,Coconino,17018153,2022/08/31,13:02:00+00,10.33,0.0,309.0,48.0,97.0,1.0
44.925,-123.46944,ROCKHOUSE 1,OR,Polk,17176861,2022/08/31,13:12:59+00,57.06,0.0,39.0,68.0,58.0,0.0
36.84361,-118.26556,OAK CREEK,CA,Inyo,17006909,2022/05/05,00:43:00+00,0.04,12.0,133.0,76.0,11.0,487.0
33.64711,-117.41203,EL CARISO,CA,Riverside,17018416,2022/06/23,01:21:00+00,11.07,2.0,62.0,85.0,30.0,165.0
32.74446,-116.67331,JAPATUL FIRE STATION,CA,San Diego,19651333,2022/03/15,12:52:00+00,11.23,0.0,346.0,50.0,53.0,0.0
64.38583,-147.69528,BLAIR LAKES,AK,Fairbanks North Star,17562641,2022/04/28,19:30:00+00,5.55,3.0,305.0,49.0,46.0,496.0
38.54053,-105.20397,FOUR MILE,CO,Fremont,17567773,2022/03/15,20:39:00+00,2.24,8.0,226.0,70.0,7.0,875.0
38.63611,-80.61972,FLATWOODS,WV,Braxton,17467929,2022/08/31,13:17:00+00,42.52,2.0,249.0,65.0,93.0,203.0
31.01667,-93.18694,VERNON,LA,Vernon,17053478,2022/03/15,12:59:00+00,7.7,3.0,202.0,54.0,100.0,4.0
40.54851,-123.16513,HAYFORK,CA,Trinity,17021242,2022/03/15,13:25:00+00,14.97,0.0,65.0,45.0,100.0,0.0
37.52222,-112.27111,AGUA CANYON,UT,Garfield,16911417,2022/07/26,17:06:59+00,6.11,4.0,124.0,63.0,73.0,362.0
43.88056,-102.23778,PINNACLES,SD,Pennington,17123624,2022/08/31,13:21:00+00,9.18,6.0,330.0,70.0,46.0,83.0
46.03331,-106.19458,COW CREEK,MT,Rosebud,17164343,2022/03/15,13:21:59+00,8.81,8.0,216.0,41.0,52.0,1.0
41.04783,-123.67128,HOOPA,CA,Humboldt,17130553,2022/08/31,12:41:00+00,36.08,1.0,97.0,58.0,90.0,0.0
46.43958,-114.22682,SMITH CREEK,MT,Ravalli,17233958,2022/08/31,13:10:00+00,15.67,1.0,274.0,66.0,27.0,2.0
44.94081,-122.40081,HORSE CREEK,OR,Clackamas,16861009,2022/07/21,18:27:59+00,51.17,2.0,273.0,74.0,62.0,801.0
41.444,-119.11444,DRY CANYON,NV,Humboldt,16849464,2022/05/02,22:38:00+00,0.86,14.0,277.0,48.0,37.0,894.0
35.84417,-84.33167,LENOIR CITY,TN,Loudon,17394464,2022/03/04,04:05:59+00,13.55,1.0,110.0,56.0,53.0,0.0
62.72388,-154.0764,FAREWELL,AK,Yukon-Koyukuk,16787241,2022/05/02,22:54:00+00,15.88,8.0,163.0,53.0,27.0,511.0
44.67611,-84.12833,MIO,MI,Oscoda,17059620,2022/04/22,13:01:00+00,6.39,1.0,276.0,41.0,73.0,100.0
46.03331,-106.19458,COW CREEK,MT,Rosebud,17164346,2022/06/16,02:22:00+00,5.03,12.0,300.0,64.0,47.0,130.0
36.24536,-121.78015,BIG SUR,CA,Monterey,17208879,2022/06/09,11:05:00+00,31.84,1.0,229.0,50.0,84.0,0.0
34.06075,-114.73228,RICE VALLEY,CA,Riverside,16801840,2022/08/31,12:51:00+00,1.31,7.0,24.0,86.0,35.0,0.0
43.11286,-78.40431,IROQUOIS,NY,Genesee,17172777,2022/08/31,13:26:00+00,19.87,6.0,250.0,69.0,66.0,299.0
48.13623,-118.97241,NESPELEM,WA,Okanogan,16783422,2022/08/31,10:57:00+00,10.54,3.0,74.0,69.0,37.0,0.0
40.05886,-120.09372,DOYLE,CA,Lassen,16840762,2022/05/05,01:11:00+00,8.8,9.0,35.0,77.0,16.0,435.0
36.60611,-105.12028,CIMARRON,NM,Colfax,17380381,2022/05/19,15:10:00+00,3.62,5.0,195.0,67.0,18.0,518.0
32.99031,-116.06697,FISH CREEK MOUNTAINS,CA,Imperial,16802096,2022/03/15,13:26:00+00,0.45,3.0,197.0,69.0,15.0,0.0
40.80711,-121.29651,LADDER BUTTE,CA,Lassen,16958034,2022/03/15,12:53:00+00,6.59,12.0,182.0,34.0,100.0,0.0
